[
	{
		"id": "1",
		"title": "Alabama Farmers Market",
		"description": "The Alabama Farmers Market is open to the public 7 days a week, 365 days a year.",
		"longDescription": "<p>The Alabama Farmers Market welcomes visitors year-round with fresh, local produce and specialty vendors. This expansive indoor and outdoor market connects the community with local farmers and established retailers in a vibrant marketplace setting.</p><p class='mt-4'>Experience the heart of Alabama's agricultural community at this bustling marketplace that brings together local farmers, specialty vendors, and fresh food enthusiasts daily.</p>",
		"image": "/images/resources/alabama/alabama-farmers-market.avif",
		"address": {
			"street": "344 Finley Avenue West",
			"city": "Birmingham",
			"state": "Alabama",
			"zip": "35204"
		},
		"phone": "+1 205 251-8737",
		"hours": {
			"monday": "6:00 AM - 2:00 PM",
			"tuesday": "6:00 AM - 2:00 PM",
			"wednesday": "6:00 AM - 2:00 PM",
			"thursday": "6:00 AM - 2:00 PM",
			"friday": "6:00 AM - 2:00 PM",
			"saturday": "6:00 AM - 2:00 PM",
			"sunday": "6:00 AM - 2:00 PM"
		},
		"externalUrl": "https://alabamafarmersmarket.org/",
		"sponsored": false
	},
	{
		"id": "2",
		"title": "The Market at Pepper Place",
		"description": "An outdoor farmers market in Birmingham, Alabama, open every Saturday and select Tuesdays, featuring only Alabama grown, raised, and made products.",
		"longDescription": "<p>The Market at Pepper Place is a state certified, outdoor farmers market in Birmingham, Alabama. Since 2000, it has connected Alabama's finest producers with consumers in the Birmingham area, making fresh, healthy food accessible to all while supporting local farmers and artisans. The market operates every Saturday morning from January 25 to December 13, 7:00 AM to 12:00 PM, rain or shine, and also hosts a Midweek Market on select Tuesdays from 10:00 AM to 1:00 PM. SNAP is accepted and matching dollars are available with DUFB.</p><p class='mt-4'>Enjoy local produce, live music, cooking demos, wellness days, and a vibrant community atmosphere. Dogs are welcome!</p>",
		"image": "/images/resources/alabama/market-pepper-place.avif",
		"address": {
			"street": "2829 2nd Avenue South",
			"city": "Birmingham",
			"state": "Alabama",
			"zip": "35233"
		},
		"phone": "",
		"hours": {
			"monday": "",
			"tuesday": "10:00 AM - 1:00 PM",
			"wednesday": "",
			"thursday": "",
			"friday": "",
			"saturday": "7:00 AM - 12:00 PM",
			"sunday": ""
		},
		"externalUrl": "https://pepperplacemarket.com/",
		"sponsored": false
	},
	{
		"id": "3",
		"title": "Peach Park",
		"description": "Down-home farm eatery offering traditional American dishes & desserts, plus a market & gift shop.",
		"longDescription": "<p>Peach Park in Clanton, Alabama, is a beloved destination for locals and travelers alike. Known for its fresh peaches, homemade ice cream (especially their signature cantaloupe ice cream), and classic Southern fare like BBQ sandwiches and fried chicken, Peach Park also features a market, bakery, boutique, and gift shop. The park offers a spacious outdoor area with picnic tables, a playground for kids, a goldfish pond, and shaded spots for relaxing. With a welcoming, family-friendly atmosphere, Peach Park is perfect for a meal, a sweet treat, or picking up local produce and unique gifts. The staff is known for outstanding service, and the park is open year-round. <a href='https://peach-park.site/' target='_blank' rel='noopener'>Learn more</a>.</p>",
		"image": "/images/resources/alabama/peach-park.avif",
		"address": {
			"street": "2300 7th St S",
			"city": "Clanton",
			"state": "Alabama",
			"zip": "35046"
		},
		"phone": "+1 205-755-2065",
		"hours": {
			"monday": "10:00 AM - 5:00 PM",
			"tuesday": "10:00 AM - 5:00 PM",
			"wednesday": "10:00 AM - 5:00 PM",
			"thursday": "10:00 AM - 5:00 PM",
			"friday": "10:00 AM - 5:00 PM",
			"saturday": "10:00 AM - 5:00 PM",
			"sunday": "10:00 AM - 5:00 PM"
		},
		"externalUrl": "https://peach-park.site/",
		"sponsored": false
	},
	{
		"id": "4",
		"title": "Durbin Farms Market",
		"description": "Farm market and restaurant offering fresh Chilton County peaches, homemade ice cream, sandwiches, produce, gifts, and more.",
		"longDescription": "<p>Durbin Farms Market in Clanton, Alabama, is a must-stop destination for travelers and locals alike. Famous for their homegrown Chilton County peaches, the market also features homemade hand-scooped ice cream, a full restaurant menu, fresh produce, jams, jellies, preserves, and a boutique gift shop. Enjoy sandwiches, fried pies, and Southern treats in a family-friendly setting with indoor and outdoor seating. Dogs are welcome at the picnic tables outside. Shop for local honey, sauces, and unique gifts, or pre-order peaches online. Open daily, Durbin Farms Market is a true taste of Alabama hospitality.</p>",
		"image": "/images/resources/alabama/durbin-farms-market.avif",
		"address": {
			"street": "2130 7th St S",
			"city": "Clanton",
			"state": "Alabama",
			"zip": "35045"
		},
		"phone": "+1 205-755-1672",
		"hours": {
			"monday": "8:00 AM - 8:00 PM",
			"tuesday": "8:00 AM - 8:00 PM",
			"wednesday": "8:00 AM - 8:00 PM",
			"thursday": "8:00 AM - 8:00 PM",
			"friday": "8:00 AM - 8:00 PM",
			"saturday": "8:00 AM - 8:00 PM",
			"sunday": "8:00 AM - 8:00 PM"
		},
		"externalUrl": "https://durbinfarmsmarket.com/",
		"sponsored": false
	},
	{
		"id": "5",
		"title": "Tuscaloosa River Market",
		"description": "Year-round farmers market featuring local produce, meats, baked goods, and artisan products from West Alabama vendors.",
		"longDescription": "<p>The Tuscaloosa Farmers Market is a vibrant, year-round market located at the Tuscaloosa River Market on the Black Warrior River. Shop for fresh, locally grown produce, meats, eggs, baked goods, honey, flowers, and artisan products from West Alabama farmers and makers. The market is open every Saturday, rain or shine, and offers a welcoming community atmosphere with special events throughout the year. SNAP/EBT accepted.</p>",
		"image": "/images/resources/alabama/tuscaloosa-river-market.avif",
		"address": {
			"street": "1900 Jack Warner Pkwy",
			"city": "Tuscaloosa",
			"state": "Alabama",
			"zip": "35401"
		},
		"phone": "+1 205-248-5290",
		"hours": {
			"monday": "",
			"tuesday": "",
			"wednesday": "",
			"thursday": "",
			"friday": "",
			"saturday": "7:00 AM - 12:00 PM",
			"sunday": ""
		},
		"externalUrl": "https://tuscaloosafarmersmarket.com/",
		"sponsored": false
	},
	{
		"id": "6",
		"title": "Orrville Farmers Market",
		"description": "Local market offering fresh produce, artisan foods, jar goods, snacks, home and garden items, and gifts in Orrville, Alabama.",
		"longDescription": "<p>The Orrville Farmers Market connects consumers with locally grown, fresh produce, artisan foods, agricultural products, and prepared foods. The market also features jar goods, snacks, home and garden items, gifts, and health and beauty products. Enjoy breakfast and lunch service, and shop for Alabama peanuts, preserves, and more. The market fosters relationships between farmers and customers, cultivating community and loyalty.</p>",
		"image": "/images/resources/alabama/orrville-farmers-market.avif",
		"address": {
			"street": "14560 Main Street",
			"city": "Orrville",
			"state": "Alabama",
			"zip": "36767"
		},
		"phone": "+1 334-996-8301",
		"hours": {
			"monday": "",
			"tuesday": "7:00 AM - 3:00 PM",
			"wednesday": "7:00 AM - 3:00 PM",
			"thursday": "7:00 AM - 3:00 PM",
			"friday": "7:00 AM - 3:00 PM",
			"saturday": "7:00 AM - 3:00 PM",
			"sunday": ""
		},
		"externalUrl": "https://orrvillefarmersmarket.com/",
		"sponsored": false
	},
	{
		"id": "7",
		"title": "Tanana Valley Farmers Market",
		"description": "Alaska's oldest established farmers market, featuring Alaska Grown produce, plants, and Made in Alaska arts and crafts in Fairbanks.",
		"longDescription": "<p>The Tanana Valley Farmers Market in Fairbanks, Alaska, showcases a wide variety of Alaska Grown produce, plants, and Made in Alaska and Silver Hand arts and crafts. As the oldest established farmers market in Alaska, it operates from its own permanent building and brings together growers and artisans from across the Tanana Valley. Open May through September, the market offers fresh vegetables, local products, and a vibrant community atmosphere.</p>",
		"image": "/images/resources/alaska/tanana-valley-farmers-market.avif",
		"address": {
			"street": "2600 College Road",
			"city": "Fairbanks",
			"state": "Alaska",
			"zip": "99708"
		},
		"phone": "+1 907-456-3276",
		"hours": {
			"monday": "",
			"tuesday": "",
			"wednesday": "11:00 AM - 4:00 PM",
			"thursday": "",
			"friday": "",
			"saturday": "9:00 AM - 4:00 PM",
			"sunday": ""
		},
		"externalUrl": "https://www.tvfmarket.com/",
		"sponsored": false
	},
	{
		"id": "8",
		"title": "Homer Farmers Market",
		"description": "Weekly market in Homer, Alaska, supporting local growers and artisans with fresh produce, food, crafts, and community events.",
		"longDescription": "<p>The Homer Farmers Market welcomes all growers of farm, garden, and greenhouse produce to participate in a weekly market. Established in 2000, the market supports a sustainable local agricultural community and offers fresh produce, food, crafts, and regular events like cooking demos and live music. SNAP, WIC, and Senior Benefits accepted. Open May through September.</p>",
		"image": "/images/resources/alaska/homer-farmers-market.avif",
		"address": {
			"street": "1211 Ocean Drive",
			"city": "Homer",
			"state": "Alaska",
			"zip": "99603"
		},
		"phone": "+1 907-299-7540",
		"hours": {
			"monday": "",
			"tuesday": "",
			"wednesday": "2:00 PM - 5:00 PM",
			"thursday": "",
			"friday": "",
			"saturday": "10:00 AM - 3:00 PM",
			"sunday": ""
		},
		"externalUrl": "https://homerfarmersmarket.org/",
		"sponsored": false
	},
	{
		"id": "9",
		"title": "Wasilla Farmers Market",
		"description": "Summer market in Wasilla, Alaska, offering local produce, baked goods, jams, crafts, and Alaskan-made gifts.",
		"longDescription": "<p>The Wasilla Farmers Market, sponsored by the Wasilla Knik Historical Society, runs every summer from June through mid-September. Local farmers, gardeners, bakers, and artisans sell fresh produce, jams, breads, and Alaskan-made gifts. Open Wednesdays at Iditapark, the market is a great place to find local flavors and crafts.</p>",
		"image": "/images/resources/alaska/wasilla-farmers-market.avif",
		"address": {
			"street": "300 N Boundary",
			"city": "Wasilla",
			"state": "Alaska",
			"zip": "99654"
		},
		"phone": "+1 907-376-7755",
		"hours": {
			"monday": "",
			"tuesday": "",
			"wednesday": "10:00 AM - 5:00 PM",
			"thursday": "",
			"friday": "",
			"saturday": "",
			"sunday": ""
		},
		"externalUrl": "http://www.wkhsociety.org/wasilla-farmer-s-market.html",
		"sponsored": false
	},
	{
		"id": "10",
		"title": "Old Town Scottsdale Farmers Market",
		"description": "Seasonal market in Old Town Scottsdale featuring over 100 local growers and specialty food producers.",
		"longDescription": "<p>The Old Town Scottsdale Farmers Market, established in 2009, features more than 100 local growers and specialty food producers. Find organic and pesticide-free produce, seasonal specialties, flowers, meats, eggs, cheese, artisan breads, jams, and more. Family friendly and well-mannered pets welcome. SNAP, DUFB, WIC, and Senior Nutrition programs accepted. Open Saturdays, October–April 8am–1pm, May 8am–12pm, Summer 7–10am.</p>",
		"image": "/images/resources/arizona/old-town-scottsdale-farmers-market.avif",
		"address": {
			"street": "3806 N. Brown Ave.",
			"city": "Scottsdale",
			"state": "Arizona",
			"zip": "85251"
		},
		"phone": "",
		"hours": {
			"monday": "",
			"tuesday": "",
			"wednesday": "",
			"thursday": "",
			"friday": "",
			"saturday": "See website for seasonal hours",
			"sunday": ""
		},
		"externalUrl": "https://arizonacommunityfarmersmarkets.com/old-town-scottsdale",
		"sponsored": false
	},
	{
		"id": "11",
		"title": "Uptown Farmers Market",
		"description": "Year-round Saturday market in Phoenix with local produce, food, and artisan goods.",
		"longDescription": "<p>Uptown Farmers Market is a vibrant, year-round market in Phoenix, Arizona, featuring local produce, food, and artisan goods. Open Saturdays 7am–11am (summer), with additional Wednesday hours in winter. Located at North Phoenix Baptist Church, 5757 N Central Ave.</p>",
		"image": "/images/resources/arizona/uptown-farmers-market.avif",
		"address": {
			"street": "5757 N Central Ave",
			"city": "Phoenix",
			"state": "Arizona",
			"zip": "85012"
		},
		"phone": "+1 602-859-5648",
		"hours": {
			"monday": "",
			"tuesday": "",
			"wednesday": "Closed for summer",
			"thursday": "",
			"friday": "",
			"saturday": "7:00 AM - 11:00 AM",
			"sunday": ""
		},
		"externalUrl": "https://uptownmarketaz.com/",
		"sponsored": false
	},
	{
		"id": "12",
		"title": "Gilbert Farmers Market",
		"description": "Downtown Gilbert market with over 100 vendors, featuring local produce, eggs, meat, cheese, bread, and artisan products.",
		"longDescription": "<p>Gilbert Farmers Market is located in Downtown Gilbert, just west of the iconic Water Tower. Open every Saturday, the market features over 100 vendors year-round, offering local, chemical-free, organic produce, farm-fresh eggs, meat, cheese, bread, sweets, coffee, sauces, and artisan products. Summer hours: 7am–11am; Winter hours: 8am–12pm.</p>",
		"image": "/images/resources/arizona/gilbert-farmers-market.avif",
		"address": {
			"street": "222 N. Ash St.",
			"city": "Gilbert",
			"state": "Arizona",
			"zip": "85234"
		},
		"phone": "",
		"hours": {
			"monday": "",
			"tuesday": "",
			"wednesday": "",
			"thursday": "",
			"friday": "",
			"saturday": "See website for seasonal hours",
			"sunday": ""
		},
		"externalUrl": "https://gilbertmarket.com/",
		"sponsored": false
	},
	{
		"id": "13",
		"title": "Superstition Ranch Farmers Market",
		"description": "Family-owned market in Mesa, AZ, offering fresh produce, local honey, bakery, deli, and grocery items.",
		"longDescription": "<p>Superstition Ranch Farmers Market is a family-owned market serving the Mesa area for over 50 years. Known for great quality produce at low prices, the market also offers local honey, bakery, deli, and grocery items. Open Monday–Saturday 7:30am–7pm, Sunday 8am–5:30pm.</p>",
		"image": "/images/resources/arizona/superstition-ranch.avif",
		"address": {
			"street": "4755 E Main St",
			"city": "Mesa",
			"state": "Arizona",
			"zip": "85205"
		},
		"phone": "+1 480-832-3421",
		"hours": {
			"monday": "7:30 AM - 7:00 PM",
			"tuesday": "7:30 AM - 7:00 PM",
			"wednesday": "7:30 AM - 7:00 PM",
			"thursday": "7:30 AM - 7:00 PM",
			"friday": "7:30 AM - 7:00 PM",
			"saturday": "7:30 AM - 7:00 PM",
			"sunday": "8:00 AM - 5:30 PM"
		},
		"externalUrl": "https://www.superstitionranchmarket.com/",
		"sponsored": false
	},
	{
		"id": "14",
		"title": "Downtown Phoenix Farmers Market",
		"description": "Downtown Phoenix market offering local produce, food, and artisan goods. Accepts EBT, WIC, and Double Up Food Bucks.",
		"longDescription": "<p>The Downtown Phoenix Farmers Market is a community-focused market offering local produce, food, and artisan goods. Open Saturdays, main season (Oct–May) 8am–1pm, summer season (May–Oct) 7:30am–11:30am. Accepts cash, credit, EBT, WIC, and Double Up Food Bucks.</p>",
		"image": "/images/resources/arizona/downtown-phoenix-farmers-market.avif",
		"address": {
			"street": "720 N 5th Street",
			"city": "Phoenix",
			"state": "Arizona",
			"zip": "85004"
		},
		"phone": "+1 602-625-6736",
		"hours": {
			"monday": "",
			"tuesday": "",
			"wednesday": "",
			"thursday": "",
			"friday": "",
			"saturday": "See website for seasonal hours",
			"sunday": ""
		},
		"externalUrl": "https://downtownphoenixfarmersmarket.org/",
		"sponsored": false
	},
	{
		"id": "15",
		"title": "Roadrunner Farmers Market",
		"description": "Seasonal Phoenix market with local growers, specialty foods, and artisan vendors. SNAP, WIC, and Senior Nutrition accepted.",
		"longDescription": "<p>Roadrunner Farmers Market in Phoenix features local growers, specialty foods, and artisan vendors. SNAP, WIC, and Senior Nutrition programs accepted. Open Saturdays, October–April 8am–1pm, May 8am–12pm, Summer 7–10am.</p>",
		"image": "/images/resources/arizona/roadrunner-farmers-market.avif",
		"address": {
			"street": "3502 E Cactus Rd",
			"city": "Phoenix",
			"state": "Arizona",
			"zip": "85032"
		},
		"phone": "",
		"hours": {
			"monday": "",
			"tuesday": "",
			"wednesday": "",
			"thursday": "",
			"friday": "",
			"saturday": "See website for seasonal hours",
			"sunday": ""
		},
		"externalUrl": "https://arizonacommunityfarmersmarkets.com/roadrunner-farmers-mkt",
		"sponsored": false
	},
	{
		"id": "16",
		"title": "Prescott Farmers Market",
		"description": "Producer-only market in Prescott, AZ, featuring local produce, meats, eggs, baked goods, and artisan products.",
		"longDescription": "<p>Prescott Farmers Market is a producer-only market supporting local farmers and food producers in the Prescott area. Shop for fresh produce, meats, eggs, baked goods, honey, flowers, and artisan products. SNAP/EBT and Double Up Food Bucks accepted. Open Saturdays year-round, with seasonal hours and locations.</p>",
		"image": "/images/resources/arizona/prescott-farmers-market.avif",
		"address": {
			"street": "900 Iron Springs Rd",
			"city": "Prescott",
			"state": "Arizona",
			"zip": "86305"
		},
		"phone": "+1 928-713-1227",
		"hours": {
			"monday": "",
			"tuesday": "",
			"wednesday": "",
			"thursday": "",
			"friday": "",
			"saturday": "See website for seasonal hours",
			"sunday": ""
		},
		"externalUrl": "https://prescottfarmersmarket.org/",
		"sponsored": false
	},
	{
		"id": "17",
		"title": "Amadio Ranch",
		"description": "Family farm in Laveen, AZ, offering farm stand produce, pies, preserves, and events.",
		"longDescription": "<p>Amadio Ranch is a family farm in Laveen, Arizona, offering a farm stand with fresh produce, homemade pies, preserves, eggs, and more. The ranch hosts seasonal events and is dedicated to sustainable, local agriculture.</p>",
		"image": "/images/resources/arizona/amadio-ranch.avif",
		"address": {
			"street": "4701 W Dobbins Rd",
			"city": "Laveen Village",
			"state": "Arizona",
			"zip": "85339"
		},
		"phone": "+1 602-237-3311",
		"hours": {
			"monday": "Closed",
			"tuesday": "Closed",
			"wednesday": "Closed",
			"thursday": "Closed",
			"friday": "8:00 AM - 6:00 PM",
			"saturday": "8:00 AM - 6:00 PM",
			"sunday": "8:00 AM - 6:00 PM"
		},
		"externalUrl": "https://amadioranch.com/",
		"sponsored": false
	},
	{
		"id": "18",
		"title": "Ahwatukee Farmers Market",
		"description": "Community market in Phoenix, AZ, featuring local produce, food, and artisan vendors. SNAP, WIC, and Senior Nutrition accepted.",
		"longDescription": "<p>Ahwatukee Farmers Market is a community market in Phoenix, Arizona, offering local produce, food, and artisan vendors. SNAP, WIC, and Senior Nutrition programs accepted. Open Sundays, October–April 9am–1pm, May 8am–11am, closed summer.</p>",
		"image": "/images/resources/arizona/ahwatukee-farmers-market.avif",
		"address": {
			"street": "4700 E Warner Rd",
			"city": "Phoenix",
			"state": "Arizona",
			"zip": "85044"
		},
		"phone": "",
		"hours": {
			"monday": "",
			"tuesday": "",
			"wednesday": "",
			"thursday": "",
			"friday": "",
			"saturday": "",
			"sunday": "See website for seasonal hours"
		},
		"externalUrl": "https://arizonacommunityfarmersmarkets.com/ahwatukee-farmers-market",
		"sponsored": false
	},
	{
		"id": "19",
		"title": "Heirloom Farmers Markets",
		"description": "Network of farmers markets in Tucson and Southern Arizona, supporting local growers and food producers.",
		"longDescription": "<p>Heirloom Farmers Markets operates several markets in Tucson and Southern Arizona, supporting local growers and food producers. Markets include Rillito Park, Oro Valley, Green Valley, and more. SNAP/EBT accepted.</p>",
		"image": "/images/resources/arizona/heirloom-farmers-markets.avif",
		"address": {
			"street": "Multiple locations",
			"city": "Tucson",
			"state": "Arizona",
			"zip": ""
		},
		"phone": "+1 520-882-2157",
		"hours": {
			"monday": "",
			"tuesday": "",
			"wednesday": "",
			"thursday": "",
			"friday": "",
			"saturday": "See website for locations/hours",
			"sunday": "See website for locations/hours"
		},
		"externalUrl": "https://www.heirloomfm.org/",
		"sponsored": false
	},
	{
		"id": "20",
		"title": "Tolmachoff Farms",
		"description": "Family farm in Glendale, AZ, offering U-pick produce, farm stand, and seasonal events.",
		"longDescription": "<p>Tolmachoff Farms is a family farm in Glendale, Arizona, offering U-pick produce, a farm stand, and seasonal events like pumpkin days and corn mazes.</p>",
		"image": "/images/resources/arizona/tolmachoff-farms.avif",
		"address": {
			"street": "5726 N 75th Ave",
			"city": "Glendale",
			"state": "Arizona",
			"zip": "85303"
		},
		"phone": "+1 623-386-1301",
		"hours": {
			"monday": "Closed",
			"tuesday": "Closed",
			"wednesday": "Closed",
			"thursday": "Closed",
			"friday": "9:00 AM - 5:00 PM",
			"saturday": "9:00 AM - 5:00 PM",
			"sunday": "9:00 AM - 5:00 PM"
		},
		"externalUrl": "https://www.tolmachoff-farms.com/",
		"sponsored": false
	},
	{
		"id": "21",
		"title": "Tempe Farmers Market",
		"description": "Indoor market and cafe in Tempe, AZ, offering local produce, groceries, and prepared foods.",
		"longDescription": "<p>Tempe Farmers Market is an indoor market and cafe in downtown Tempe, Arizona, offering local produce, groceries, prepared foods, and vegan options. Open daily.</p>",
		"image": "/images/resources/arizona/tempe-farmers-market.avif",
		"address": {
			"street": "805 S Farmer Ave",
			"city": "Tempe",
			"state": "Arizona",
			"zip": "85281"
		},
		"phone": "+1 480-858-2709",
		"hours": {
			"monday": "8:00 AM - 8:00 PM",
			"tuesday": "8:00 AM - 8:00 PM",
			"wednesday": "8:00 AM - 8:00 PM",
			"thursday": "8:00 AM - 8:00 PM",
			"friday": "8:00 AM - 8:00 PM",
			"saturday": "8:00 AM - 8:00 PM",
			"sunday": "8:00 AM - 8:00 PM"
		},
		"externalUrl": "https://www.tempefarmersmarket.com/",
		"sponsored": false
	},
	{
		"id": "22",
		"title": "Downtown Chandler Farmers Market",
		"description": "Seasonal market in downtown Chandler, AZ, featuring local produce, food, and artisan vendors.",
		"longDescription": "<p>The Downtown Chandler Farmers Market is a seasonal market featuring local produce, food, and artisan vendors. Open Saturdays, October–May, 9am–1pm.</p>",
		"image": "/images/resources/arizona/downtown-chandler-farmers-market.avif",
		"address": {
			"street": "3 S Arizona Ave",
			"city": "Chandler",
			"state": "Arizona",
			"zip": "85225"
		},
		"phone": "",
		"hours": {
			"monday": "",
			"tuesday": "",
			"wednesday": "",
			"thursday": "",
			"friday": "",
			"saturday": "9:00 AM - 1:00 PM",
			"sunday": ""
		},
		"externalUrl": "https://downtownchandler.org/events/farmers-market",
		"sponsored": false
	},
	{
		"id": "23",
		"title": "Hot Springs Farmers Market",
		"description": "Homegrown, homemade, and handcrafted market in Hot Springs, AR. Open Saturdays, rain or shine.",
		"longDescription": "<p>Hot Springs Farmers Market brings together local farmers, artisans, and food producers every Saturday, rain or shine. Enjoy fresh produce, homemade goods, and handcrafted items. SNAP is accepted year-round, and the market supports Double Up Food Bucks. Located at 121 Orange Street, the market is a vibrant community hub for fresh, local food and fun.</p>",
		"image": "/images/resources/arkansas/hot-springs-farmers-market.avif",
		"address": {
			"street": "121 Orange Street",
			"city": "Hot Springs",
			"state": "Arkansas",
			"zip": "71901"
		},
		"phone": "",
		"hours": {
			"monday": "",
			"tuesday": "",
			"wednesday": "",
			"thursday": "",
			"friday": "",
			"saturday": "7:00 AM - 12:00 PM",
			"sunday": ""
		},
		"externalUrl": "https://www.hotspringsfarmersmarket.com/",
		"sponsored": false
	},
	{
		"id": "24",
		"title": "Me & McGee Market",
		"description": "Highly rated market just outside North Little Rock, AR, offering local meats, produce, plants, honey, jams, and more.",
		"longDescription": "<p>Me & McGee Market provides a relaxing environment for local farmers and producers to offer meats, plants, eggs, honey, fresh produce, jams, jellies, and more. The market is known for its community spirit and support for the Larry McGee Foundation. Located on Highway 70, it's a destination for fresh, local Arkansas products and a welcoming market experience.</p>",
		"image": "/images/resources/arkansas/me-and-mcgee-market.avif",
		"address": {
			"street": "10409 Highway 70",
			"city": "North Little Rock",
			"state": "Arkansas",
			"zip": "72117"
		},
		"phone": "+1 501-355-6222",
		"hours": {
			"monday": "",
			"tuesday": "",
			"wednesday": "",
			"thursday": "",
			"friday": "",
			"saturday": "See website for seasonal hours",
			"sunday": "See website for seasonal hours"
		},
		"externalUrl": "https://meandmcgeemarket.com/",
		"sponsored": false
	},
	{
		"id": "25",
		"title": "Fort Smith Farmers Market",
		"description": "Popular farmers market in downtown Fort Smith, AR, offering local produce, food, and artisan goods.",
		"longDescription": "<p>The Fort Smith Farmers Market is a vibrant downtown market featuring local produce, food, and artisan goods. It's a community gathering place for fresh food and local products, supporting area farmers and makers. Located on Garrison Avenue, the market is a must-visit for residents and visitors alike.</p>",
		"image": "/images/resources/arkansas/fort-smith-farmers-market.avif",
		"address": {
			"street": "524 Garrison Ave",
			"city": "Fort Smith",
			"state": "Arkansas",
			"zip": "72901"
		},
		"phone": "+1 479-783-8888",
		"hours": {
			"monday": "",
			"tuesday": "",
			"wednesday": "7:00 AM - 12:00 PM",
			"thursday": "",
			"friday": "",
			"saturday": "7:00 AM - 12:00 PM",
			"sunday": ""
		},
		"externalUrl": "https://www.discoverfortsmith.com/listing/fort-smith-farmers-market/278/",
		"sponsored": false
	},
	{
		"id": "26",
		"title": "1894 City Market",
		"description": "Historic market and event venue in downtown Texarkana, AR, offering unique spaces and local events.",
		"longDescription": "<p>The Historic 1894 City Market in Texarkana, Arkansas, is a unique venue for events, markets, and community gatherings. Located in a historic building, it offers a blend of local history, art, and vibrant market experiences. The market is a hub for local culture and special events in downtown Texarkana.</p>",
		"image": "/images/resources/arkansas/1894-city-market.avif",
		"address": {
			"street": "105 Olive St",
			"city": "Texarkana",
			"state": "Arkansas",
			"zip": "71854"
		},
		"phone": "",
		"hours": {
			"monday": "",
			"tuesday": "",
			"wednesday": "",
			"thursday": "",
			"friday": "",
			"saturday": "See website for seasonal hours",
			"sunday": "See website for seasonal hours"
		},
		"externalUrl": "http://www.1894citymarket.com/home.html",
		"sponsored": false
	},
	{
		"id": "27",
		"title": "Siloam Springs Farmers Market",
		"description": "Producers-only market in Siloam Springs, AR, offering local food, artisan goods, and community events.",
		"longDescription": "<p>The Siloam Springs Farmers Market is a producers-only market in downtown Siloam Springs, Arkansas. Shop for local produce, pasture-raised meats, baked goods, and artisan wares. The market features SNAP and Double Your Dollar programs, Kids Day events, and a vibrant community atmosphere. Located in Memorial Park, it's a Saturday morning tradition for the community.</p>",
		"image": "/images/resources/arkansas/siloam-springs-farmers-market.avif",
		"address": {
			"street": "311 S Mt. Olive St",
			"city": "Siloam Springs",
			"state": "Arkansas",
			"zip": "72761"
		},
		"phone": "+1 479-524-4556",
		"hours": {
			"monday": "",
			"tuesday": "",
			"wednesday": "",
			"thursday": "",
			"friday": "",
			"saturday": "See website for seasonal hours",
			"sunday": "See website for seasonal hours"
		},
		"externalUrl": "https://mainstreetsiloam.org/farmersmarket/",
		"sponsored": false
	},
	{
		"id": "28",
		"title": "Ferry Plaza Farmers' Market",
		"description": "Premier farmers' market at San Francisco's Ferry Building featuring local farmers, food artisans, and renowned chefs.",
		"longDescription": "<p>The Ferry Plaza Farmers' Market is a triweekly California Certified Farmers Market operated by Foodwise at the San Francisco Ferry Building. Since 1993, the market has served as a crucial link between urban dwellers and local farmers, renowned for its diverse offering of delicious, high-quality products from California's cutting-edge sustainable growers, food makers, and chefs. With over 100 vendors on Saturdays and smaller weekday markets, it's a must-visit culinary destination in San Francisco.</p>",
		"image": "/images/resources/image-soon.png",
		"address": {
			"street": "1 Ferry Building",
			"city": "San Francisco",
			"state": "California",
			"zip": "94111"
		},
		"phone": "+1 415-291-3276",
		"hours": {
			"monday": "",
			"tuesday": "10:00 AM - 2:00 PM",
			"wednesday": "",
			"thursday": "10:00 AM - 2:00 PM",
			"friday": "",
			"saturday": "8:00 AM - 2:00 PM",
			"sunday": ""
		},
		"externalUrl": "https://foodwise.org/markets/ferry-plaza-farmers-market/",
		"sponsored": false
	},
	{
		"id": "29",
		"title": "Hollywood Farmers' Market",
		"description": "One of LA's largest and most diverse farmers' markets featuring over 160 farmers, food vendors, and artisans.",
		"longDescription": "<p>The Hollywood Farmers' Market, founded in 1991, was one of just a few farmers' markets in all of California when it opened. Today, it's the largest in Los Angeles, hosting over 160 farmers, producers, food vendors, and artisans who specialize in a wide variety of crops grown seasonally around the state. Everyone from local families to Southern California's most respected chefs use the market for their weekly shopping. The market also features live music, activities for children, and book-signings by celebrated food authors.</p>",
		"image": "/images/resources/image-soon.png",
		"address": {
			"street": "1600 Ivar Avenue",
			"city": "Los Angeles",
			"state": "California",
			"zip": "90028"
		},
		"phone": "+1 323-463-3171",
		"hours": {
			"monday": "",
			"tuesday": "",
			"wednesday": "",
			"thursday": "",
			"friday": "",
			"saturday": "",
			"sunday": "8:00 AM - 1:00 PM"
		},
		"externalUrl": "https://foodaccessla.org/hollywood",
		"sponsored": false
	},
	{
		"id": "30",
		"title": "The Original Farmers Market",
		"description": "Historic Los Angeles landmark since 1934 with over 100 gourmet grocers, restaurants, and specialty shops.",
		"longDescription": "<p>A favorite destination among locals and tourists since 1934, LA's world-famous Original Farmers Market offers over 100 gourmet grocers, restaurants, and specialty shops. Located at the corner of 3rd Street and Fairfax Avenue in the Fairfax District, this iconic market provides a diverse culinary experience with vendors offering everything from fresh produce to international cuisine. The market maintains its historic charm while serving as a vibrant community gathering place.</p>",
		"image": "/images/resources/image-soon.png",
		"address": {
			"street": "6333 W. 3rd Street",
			"city": "Los Angeles",
			"state": "California",
			"zip": "90036"
		},
		"phone": "+1 323-933-9211",
		"hours": {
			"monday": "9:00 AM - 9:00 PM",
			"tuesday": "9:00 AM - 9:00 PM",
			"wednesday": "9:00 AM - 9:00 PM",
			"thursday": "9:00 AM - 9:00 PM",
			"friday": "9:00 AM - 9:00 PM",
			"saturday": "10:00 AM - 9:00 PM",
			"sunday": "10:00 AM - 7:00 PM"
		},
		"externalUrl": "https://farmersmarketla.com/",
		"sponsored": false
	},
	{
		"id": "31",
		"title": "Santa Monica Farmers' Market",
		"description": "Premier farmers' market where top LA chefs source ingredients, featuring certified organic produce and street food.",
		"longDescription": "<p>The Santa Monica Farmers' Market includes multiple markets throughout the week, with the Wednesday Downtown market established in 1981 and widely recognized as one of the largest and most diverse Certified Farmers Markets in the nation. Local residents, visitors, celebrities, and many of Los Angeles' best-known chefs shop at this location which features over 60 California farms. The Saturday market, established in 1991, presents the largest percentage of certified organic growers of Santa Monica's four markets with over 40 farm stands.</p>",
		"image": "/images/resources/image-soon.png",
		"address": {
			"street": "155-199 Arizona Avenue",
			"city": "Santa Monica",
			"state": "California",
			"zip": "90401"
		},
		"phone": "+1 310-458-8712",
		"hours": {
			"monday": "",
			"tuesday": "",
			"wednesday": "8:00 AM - 1:00 PM",
			"thursday": "",
			"friday": "",
			"saturday": "8:00 AM - 1:00 PM",
			"sunday": ""
		},
		"externalUrl": "https://www.santamonica.gov/places/farmers-markets/downtown-farmers-market",
		"sponsored": false
	},
	{
		"id": "32",
		"title": "Hillcrest Farmers Market",
		"description": "San Diego's vibrant market with over 175 vendors offering locally grown produce, artisan foods, and crafts.",
		"longDescription": "<p>The Hillcrest Farmers Market in San Diego features over 175 vendors offering a wide variety of locally grown produce, gifts, arts and crafts, flowers, and clothing. Located on University Avenue between Herbert Street and Park Boulevard, this Sunday market has become a community institution. The market is open year-round, rain or shine, from 9am to 2pm, making it a perfect weekend destination for both locals and visitors looking for fresh, locally-sourced products.</p>",
		"image": "/images/resources/image-soon.png",
		"address": {
			"street": "1601 University Avenue",
			"city": "San Diego",
			"state": "California",
			"zip": "92103"
		},
		"phone": "",
		"hours": {
			"monday": "",
			"tuesday": "",
			"wednesday": "",
			"thursday": "",
			"friday": "",
			"saturday": "",
			"sunday": "9:00 AM - 2:00 PM"
		},
		"externalUrl": "https://hillcrestfarmersmarket.com/",
		"sponsored": false
	},
	{
		"id": "33",
		"title": "Marin Farmers' Market",
		"description": "One of California's largest farmers' markets featuring local farmers, ranchers, and artisans in a scenic Frank Lloyd Wright setting.",
		"longDescription": "<p>The Marin Farmers' Market at the Marin Civic Center includes two weekly markets. The Sunday market, with over 150 year-round vendors, is the third largest weekly market in California, offering organic produce, grass-fed meats, hand-crafted baked goods, and local artisans. The Thursday market, known as the \"Chef's Market,\" is frequented by local restaurateurs and food producers looking to source their ingredients. Both markets are nestled in the hills of the Marin County Civic Center—Frank Lloyd Wright's largest and final public project.</p>",
		"image": "/images/resources/image-soon.png",
		"address": {
			"street": "3501 Civic Center Drive",
			"city": "San Rafael",
			"state": "California",
			"zip": "94903"
		},
		"phone": "+1 415-472-6100",
		"hours": {
			"monday": "",
			"tuesday": "",
			"wednesday": "",
			"thursday": "8:00 AM - 1:00 PM",
			"friday": "",
			"saturday": "",
			"sunday": "8:00 AM - 1:00 PM"
		},
		"externalUrl": "https://www.agriculturalinstitute.org/sunday-marin",
		"sponsored": false
	},
	{
		"id": "34",
		"title": "Sacramento Sunday Farmers' Market",
		"description": "One of the largest certified farmers' markets in California featuring fresh produce, exotic ingredients, and local specialties.",
		"longDescription": "<p>The Sacramento Sunday Farmers' Market is one of the largest certified farmers' markets in California, located at the intersection of W and 8th streets in downtown Sacramento. Open year-round from 8am to noon, this market offers a taste experience that ranges from the exotic to the familiar, with fresh Thai lemongrass, black Spanish radishes, and Tokyo turnips sitting right next to fat tomatoes, mounds of juicy berries, and takeaway treats like fresh pastries and golden waffles. The market accepts EBT and provides a vibrant community gathering space.</p>",
		"image": "/images/resources/image-soon.png",
		"address": {
			"street": "8th & W Streets",
			"city": "Sacramento",
			"state": "California",
			"zip": "95818"
		},
		"phone": "+1 916-688-0100",
		"hours": {
			"monday": "",
			"tuesday": "",
			"wednesday": "",
			"thursday": "",
			"friday": "",
			"saturday": "",
			"sunday": "8:00 AM - 12:00 PM"
		},
		"externalUrl": "https://marketlocations.com/market-times-locations/",
		"sponsored": false
	},
	{
		"id": "35",
		"title": "San Luis Obispo Farmers' Market",
		"description": "Vibrant Thursday evening market with over 100 vendors, famous BBQ, live entertainment, and fresh local produce.",
		"longDescription": "<p>The Downtown SLO Farmers' Market is San Luis Obispo's signature event, taking place every Thursday from 6-9 PM on Higuera Street. This five-block market features over 100 vendors offering fresh produce, famous BBQ, delicious meals, crafts, baked goods, and entertainment. The event is anchored by a collection of massive circular barbecue setups, and the aroma of sizzling pork shoulder, ribs, chicken, lamb, and tri-tip—as well as batches of artichokes and corn on the cob—will wake up any appetite. It's a popular destination for both locals and visitors.</p>",
		"image": "/images/resources/image-soon.png",
		"address": {
			"street": "Higuera Street",
			"city": "San Luis Obispo",
			"state": "California",
			"zip": "93401"
		},
		"phone": "+1 805-541-0286",
		"hours": {
			"monday": "",
			"tuesday": "",
			"wednesday": "",
			"thursday": "6:00 PM - 9:00 PM",
			"friday": "",
			"saturday": "",
			"sunday": ""
		},
		"externalUrl": "https://downtownslo.com/farmers-market",
		"sponsored": false
	},
	{
		"id": "36",
		"title": "Davis Farmers Market",
		"description": "Award-winning market in a university town featuring local produce, artisan foods, and popular Picnic in the Park events.",
		"longDescription": "<p>The Davis Farmers Market, established in the heart of this university town, is consistently voted Best Fresh Produce and Best Community Event in The Davis Enterprise's Readers' Choice Awards. Located in Central Park, the market offers an array of fruits and vegetables, including certified organic produce, choice meats, chicken, seafood, wine, local eggs and honey, fresh-baked goods, plants, flowers and gifts. The Wednesday evening Picnic in the Park (mid-March through October) features wine and beer tastings, global food booths, local bands, and pony rides, making it a favorite community gathering spot.</p>",
		"image": "/images/resources/image-soon.png",
		"address": {
			"street": "301 C Street",
			"city": "Davis",
			"state": "California",
			"zip": "95616"
		},
		"phone": "",
		"hours": {
			"monday": "",
			"tuesday": "",
			"wednesday": "4:00 PM - 8:00 PM (May-Sep), 3:00 PM - 6:00 PM (Oct-Apr)",
			"thursday": "",
			"friday": "",
			"saturday": "8:00 AM - 1:00 PM",
			"sunday": ""
		},
		"externalUrl": "https://www.davisfarmersmarket.org/",
		"sponsored": false
	},
	{
		"id": "37",
		"title": "The Vegetable Shop at Chino Family Farm",
		"description": "Legendary farm stand known for exceptional quality produce sought after by top chefs and food enthusiasts.",
		"longDescription": "<p>The Vegetable Shop at Chino Family Farm in Rancho Santa Fe is a legendary produce destination that has been championed by renowned chefs like Alice Waters and Wolfgang Puck. Opened on a 45-acre plot of land by Junzo and Hatsuyo Chino at the close of World War II, this farm stand sells only produce grown on the family farm. The shop is known for exceptional quality, unique varieties like French strawberries, and unusual offerings such as strawberry figs, red carrots, and watermelon radishes. It's a must-visit for food enthusiasts seeking the finest quality seasonal produce in Southern California.</p>",
		"image": "/images/resources/image-soon.png",
		"address": {
			"street": "6123 Calzada Del Bosque",
			"city": "Rancho Santa Fe",
			"state": "California",
			"zip": "92091"
		},
		"phone": "",
		"hours": {
			"monday": "",
			"tuesday": "",
			"wednesday": "10:00 AM - 3:30 PM",
			"thursday": "10:00 AM - 3:30 PM",
			"friday": "10:00 AM - 3:30 PM",
			"saturday": "10:00 AM - 3:30 PM",
			"sunday": "10:00 AM - 1:00 PM"
		},
		"externalUrl": "https://www.instagram.com/chinofarms/",
		"sponsored": false
	},
	{
		"id": "38",
		"title": "Boulder Farmers Market",
		"description": "Producer-only market with the longest season in Colorado, offering specialty foods, a food court, and acoustic entertainment.",
		"longDescription": "<p>The popular Boulder Farmers Market boasts the longest season in Colorado, running from April to mid-November. Find out-of-the-ordinary goods such as specialty chocolate, goat milk and crayfish, along with a full food court and acoustic entertainment. Don't miss Masa Seed Foundation, which focuses on growing bio-regional seed banks for local and national distribution. The market is producer-only, meaning all vendors must grow or produce what they sell.</p>",
		"image": "/images/resources/image-soon.png",
		"address": {
			"street": "13th Street between Arapahoe Ave & Canyon Boulevard",
			"city": "Boulder",
			"state": "Colorado",
			"zip": "80302"
		},
		"phone": "+1 303-910-2236",
		"hours": {
			"monday": "",
			"tuesday": "",
			"wednesday": "3:30 PM - 7:30 PM",
			"thursday": "",
			"friday": "",
			"saturday": "8:00 AM - 2:00 PM",
			"sunday": ""
		},
		"externalUrl": "https://bcfm.org/",
		"sponsored": false
	},
	{
		"id": "39",
		"title": "Cherry Creek Fresh Market",
		"description": "Denver's largest farmers market offering local produce, artisan products, and gourmet cuisine in an upscale shopping district.",
		"longDescription": "<p>Denver's largest farmers market offers a colorful mix of beautiful flowers from local farmers, local produce, artisan products and delicious cuisine, plus all the high-end shopping your heart (and wallet) can handle. Many food businesses and food-related causes have started here, so if you're looking for the next best gourmet treat, chances are you'll find it at this market! Located on the east side of the Cherry Creek Shopping Center, the market is open rain, snow, or shine and offers free validated parking.</p>",
		"image": "/images/resources/image-soon.png",
		"address": {
			"street": "Cherry Creek Shopping Center, East Side",
			"city": "Denver",
			"state": "Colorado",
			"zip": "80206"
		},
		"phone": "+1 303-442-1837",
		"hours": {
			"monday": "",
			"tuesday": "",
			"wednesday": "",
			"thursday": "",
			"friday": "",
			"saturday": "9:00 AM - 2:00 PM",
			"sunday": ""
		},
		"externalUrl": "https://coloradofreshmarkets.com/",
		"sponsored": false
	},
	{
		"id": "40",
		"title": "Vail Farmers' Market and Art Show",
		"description": "Colorado's largest farmers market with 155+ tents offering local produce, international cuisine, art, and live music in scenic Vail Village.",
		"longDescription": "<p>The largest farmers market in Colorado offers 155+ tents packed with garden goodies, regional fare, international cuisines, art, wellness products and home goods. Add the live music, huge roasted turkey legs, Mexican street corn and kids play areas, and the Sunday market resembles a (very stylish) county fair. Located in beautiful Vail Village, the market runs from Father's Day through early October, creating a vibrant community gathering space for locals and visitors alike.</p>",
		"image": "/images/resources/image-soon.png",
		"address": {
			"street": "E. Meadow Drive",
			"city": "Vail",
			"state": "Colorado",
			"zip": "81657"
		},
		"phone": "+1 970-401-3320",
		"hours": {
			"monday": "",
			"tuesday": "",
			"wednesday": "",
			"thursday": "1:00 PM - 5:30 PM",
			"friday": "",
			"saturday": "",
			"sunday": "9:30 AM - 3:30 PM"
		},
		"externalUrl": "https://www.vailfarmersmarket.com/",
		"sponsored": false
	},
	{
		"id": "41",
		"title": "South Pearl Street Farmers Market",
		"description": "A highly curated neighborhood market with a loyal following, featuring Western Slope produce, food trucks, and regular special events.",
		"longDescription": "<p>This highly curated neighborhood market has a loyal following of vendors and visitors that all add to the unique personality of this community. In addition to juicy late-summer Western Slope peaches and apples, baked treats, kombuchas, cacti and food truck offerings that make your mouth water, each Sunday brings live music as well as special events including a pet fair, flea market, chili cook-off and Halloween parade. The market is open rain, snow or shine and all holidays.</p>",
		"image": "/images/resources/image-soon.png",
		"address": {
			"street": "1400 & 1500 blocks of South Pearl Street",
			"city": "Denver",
			"state": "Colorado",
			"zip": "80210"
		},
		"phone": "+1 303-734-0718",
		"hours": {
			"monday": "",
			"tuesday": "",
			"wednesday": "",
			"thursday": "",
			"friday": "",
			"saturday": "",
			"sunday": "9:00 AM - 1:00 PM"
		},
		"externalUrl": "https://www.southpearlstreet.com/farmers-market/",
		"sponsored": false
	},
	{
		"id": "42",
		"title": "Alamosa Farmers' Market",
		"description": "San Luis Valley market featuring local dairy, meat, and produce, with a focus on food assistance programs and cooking demonstrations.",
		"longDescription": "<p>San Luis Valley dairy and meat producers offer home-crafted cheeses and grass-fed beef, lamb and yak at the Alamosa Farmers' Market. Nibble samples from valley growers and score Colorado recipes and tips at free cooking demos. The open-air roasted chiles are a must-try. The market also participates in the Double Up Food Bucks program, which matches SNAP benefits to help more community members access fresh, local food.</p>",
		"image": "/images/resources/image-soon.png",
		"address": {
			"street": "Corner of Ross and 6th Street",
			"city": "Alamosa",
			"state": "Colorado",
			"zip": "81101"
		},
		"phone": "+1 719-480-4365",
		"hours": {
			"monday": "",
			"tuesday": "",
			"wednesday": "",
			"thursday": "",
			"friday": "",
			"saturday": "8:00 AM - 1:30 PM",
			"sunday": ""
		},
		"externalUrl": "https://www.alamosafarmersmarket.org/",
		"sponsored": false
	},
	{
		"id": "43",
		"title": "Crested Butte Farmers Market",
		"description": "Mountain market offering wild-caught fish, local dairy, and seasonal harvest suppers sourced entirely from local foods.",
		"longDescription": "<p>In addition to wild-caught fish, ciders, wines and massages, this mountain market brings visitors a genuine field-to-fork experience with seasonal harvest suppers. The meals are sourced entirely from local foods, down to the table salt. If you can't experience the harvest supper, make sure to bring some goodies home from Laz Ewe 2 Bar Goat Dairy, like its yak cheese. Located at the Top of Elk Avenue in downtown Crested Butte, this market showcases the best of Colorado's mountain agriculture.</p>",
		"image": "/images/resources/image-soon.png",
		"address": {
			"street": "Top of Elk Avenue (100 and Zero Blocks)",
			"city": "Crested Butte",
			"state": "Colorado",
			"zip": "81224"
		},
		"phone": "+1 970-901-4413",
		"hours": {
			"monday": "",
			"tuesday": "",
			"wednesday": "",
			"thursday": "",
			"friday": "",
			"saturday": "",
			"sunday": "9:00 AM - 2:00 PM"
		},
		"externalUrl": "https://cbfarmersmarket.org/",
		"sponsored": false
	},
	{
		"id": "44",
		"title": "Dillon Farmers Market",
		"description": "Lakeside market featuring artistic glass jewelry, handmade pottery, boutique soaps, cheeses, pastries, and live music.",
		"longDescription": "<p>Located in Town Park, this lakeside bazaar features artistic glass jewelry, handmade pottery, boutique soaps, cheeses, pastries and a full line-up of live music to boot. Grab a fresh-squeezed lemonade and some walnut cranberry bread, then explore Lake Dillon on a historical boat tour with departures from Dillon Marina. The market is home to over 100 vendors and offers yoga sessions every Friday morning for a suggested donation.</p>",
		"image": "/images/resources/image-soon.png",
		"address": {
			"street": "Town Park along Buffalo and LaBonte Streets",
			"city": "Dillon",
			"state": "Colorado",
			"zip": "80435"
		},
		"phone": "+1 970-262-3400",
		"hours": {
			"monday": "",
			"tuesday": "",
			"wednesday": "",
			"thursday": "",
			"friday": "9:00 AM - 2:00 PM",
			"saturday": "",
			"sunday": ""
		},
		"externalUrl": "https://www.townofdillon.com/events/dillon-farmers-market",
		"sponsored": false
	},
	{
		"id": "45",
		"title": "Telluride Farmers Market",
		"description": "Organic market in downtown Telluride featuring high-quality local produce, animal products, and artisan crafts from within 100 miles.",
		"longDescription": "<p>Telluride keeps the jovial vibe alive at its market with free music and presentations, along with pottery, clothing and woodcraft vendors. The market's goal is to not only provide the community with high-quality, locally produced food and artisan craft, but also create a space where customers come face-to-face with the hardworking producers and crafters. All goods are produced within 100 miles of Telluride, ensuring a truly local shopping experience in the heart of this beautiful mountain town.</p>",
		"image": "/images/resources/image-soon.png",
		"address": {
			"street": "South Oak Street",
			"city": "Telluride",
			"state": "Colorado",
			"zip": "81435"
		},
		"phone": "+1 970-433-4699",
		"hours": {
			"monday": "",
			"tuesday": "",
			"wednesday": "",
			"thursday": "",
			"friday": "10:30 AM - 3:30 PM",
			"saturday": "",
			"sunday": ""
		},
		"externalUrl": "https://www.thetelluridefarmersmarket.com/",
		"sponsored": false
	},
	{
		"id": "46",
		"title": "Colorado Springs Farmers' Markets",
		"description": "Multiple market locations throughout Colorado Springs offering fresh produce, artisan goods, and community events.",
		"longDescription": "<p>Colorado Springs Farmer's Markets runs more than a dozen summer markets, from the Backyard Market to Monument to Woodland Park, all filled with fine artisan goods as well as organic produce, infused vinegars, pet treats and wellness products. The Briargate location operates on Wednesdays, while the Cordera market runs on Sundays, giving shoppers multiple opportunities to find fresh, local products throughout the week. With an average of about 35 vendors at each location, you can look forward to seeing many booths including local produce, dairy, honey, baked goods, and crafts.</p>",
		"image": "/images/resources/image-soon.png",
		"address": {
			"street": "7610 North Union Blvd",
			"city": "Colorado Springs",
			"state": "Colorado",
			"zip": "80920"
		},
		"phone": "+1 719-592-9420",
		"hours": {
			"monday": "",
			"tuesday": "",
			"wednesday": "9:00 AM - 2:00 PM",
			"thursday": "",
			"friday": "",
			"saturday": "",
			"sunday": "10:00 AM - 2:00 PM"
		},
		"externalUrl": "https://www.springsfarmersmarkets.com/",
		"sponsored": false
	},
	{
		"id": "47",
		"title": "Durango Farmers Market",
		"description": "Local market in southwest Colorado featuring fresh produce, artisan foods, and handcrafted goods from the region.",
		"longDescription": "<p>Located in the beautiful mountain town of Durango, this market offers a wide variety of locally grown produce, artisan foods, and handcrafted goods. The market has a strong community focus and provides a platform for local farmers and producers to connect directly with consumers. Running from May through October at the TBK Bank location, the Durango Farmers Market has become a Saturday morning tradition for locals and visitors alike, showcasing the agricultural bounty of southwest Colorado.</p>",
		"image": "/images/resources/image-soon.png",
		"address": {
			"street": "259 W 9th St (TBK Bank)",
			"city": "Durango",
			"state": "Colorado",
			"zip": "81301"
		},
		"phone": "+1 970-749-1653",
		"hours": {
			"monday": "",
			"tuesday": "",
			"wednesday": "",
			"thursday": "",
			"friday": "",
			"saturday": "8:00 AM - 12:00 PM",
			"sunday": ""
		},
		"externalUrl": "https://www.durangofarmersmarket.com/",
		"sponsored": false
	},
	{
		"id": "48",
		"title": "Westport Farmers' Market",
		"description": "A premier farmers' market in Fairfield County founded by Paul Newman and Michel Nischan, featuring 50+ curated vendors and the highest vendor standards in Connecticut.",
		"longDescription": "<p>The Westport Farmers' Market was founded by Paul Newman and Michel Nischan in June 2006. Under the leadership of Executive Director Lori Cochran-Dougall, the market is recognized in Connecticut for implementing the highest vendor standards and guidelines in the state. With 50+ highly curated vendors, the market welcomes thousands of shoppers into the community every week. The market is 98% plastic-free and features bakers, cheese mongers, food trucks, GMO-free vendors, pizza, chef demos, flowers, seeds, and fresh, local, healthy, and seasonal food.</p>",
		"image": "/images/resources/image-soon.png",
		"address": {
			"street": "50 Imperial Ave",
			"city": "Westport",
			"state": "Connecticut",
			"zip": "06880"
		},
		"phone": "",
		"hours": {
			"monday": "",
			"tuesday": "",
			"wednesday": "",
			"thursday": "10:00 AM - 2:00 PM",
			"friday": "",
			"saturday": "",
			"sunday": ""
		},
		"externalUrl": "https://www.westportfarmersmarket.com/",
		"sponsored": false
	},
	{
		"id": "49",
		"title": "Coventry Farmers Market at Hale Homestead",
		"description": "Connecticut's largest farmers' market featuring the best CT-grown, CT-made products in one of the state's most beautiful countryside settings.",
		"longDescription": "<p>Open every Sunday from June - October, the Coventry Farmers' Market is hosting the 21st season on the grounds of Nathan Hale Homestead in Coventry. The market carries the tradition of being the largest farmers' markets in Connecticut, featuring some of the best of CT-grown, CT-made products around at one of the most unspoiled countryside settings in the state. The market features themed weekends throughout the season including BBQ and Libations, Berry Jubilee, Annual Corn Roast, and Pumpkin Harvest Celebration.</p>",
		"image": "/images/resources/image-soon.png",
		"address": {
			"street": "2299 South St",
			"city": "Coventry",
			"state": "Connecticut",
			"zip": "06238"
		},
		"phone": "",
		"hours": {
			"monday": "",
			"tuesday": "",
			"wednesday": "",
			"thursday": "",
			"friday": "",
			"saturday": "",
			"sunday": "10:00 AM - 1:00 PM"
		},
		"externalUrl": "https://coventryfarmersmarket.org/",
		"sponsored": false
	},
	{
		"id": "50",
		"title": "CitySeed Farmers Markets - Wooster Square",
		"description": "Year-round farmers' market in New Haven's historic Wooster Square neighborhood, providing direct connection to 50+ Connecticut vendors.",
		"longDescription": "<p>CitySeed operates a series of vibrant, year-round Farmers Markets throughout New Haven, CT. The Wooster Square market provides a direct connection to more than 50 Connecticut vendors, including farms, nurseries, bakeries, cheese makers, and specialty food producers. CitySeed's mission is to engage the community in growing a local food system that promotes economic development, community development, and sustainable agriculture. The markets provide vital economic opportunities for regional farmers, helping to keep the local food system healthy and strong.</p>",
		"image": "/images/resources/image-soon.png",
		"address": {
			"street": "Wooster Square",
			"city": "New Haven",
			"state": "Connecticut",
			"zip": "06511"
		},
		"phone": "",
		"hours": {
			"monday": "",
			"tuesday": "",
			"wednesday": "",
			"thursday": "",
			"friday": "",
			"saturday": "9:00 AM - 1:00 PM",
			"sunday": ""
		},
		"externalUrl": "https://cityseed.org/cityseed-markets/",
		"sponsored": false
	},
	{
		"id": "51",
		"title": "CitySeed Farmers Markets - Edgewood Park",
		"description": "Sunday farmers' market in New Haven's Edgewood Park, part of CitySeed's network of year-round markets connecting the community to local food.",
		"longDescription": "<p>The Edgewood Park Farmers Market is part of CitySeed's network of vibrant, year-round Farmers Markets throughout New Haven, CT. Located in the beautiful Edgewood Park, this market provides a direct connection to more than 50 Connecticut vendors, including farms, nurseries, bakeries, cheese makers, and specialty food producers. The market serves as a vital community gathering place while supporting regional farmers and promoting sustainable agriculture in the New Haven area.</p>",
		"image": "/images/resources/image-soon.png",
		"address": {
			"street": "Edgewood Park",
			"city": "New Haven",
			"state": "Connecticut",
			"zip": "06511"
		},
		"phone": "",
		"hours": {
			"monday": "",
			"tuesday": "",
			"wednesday": "",
			"thursday": "",
			"friday": "",
			"saturday": "",
			"sunday": "10:00 AM - 1:00 PM"
		},
		"externalUrl": "https://cityseed.org/cityseed-markets/",
		"sponsored": false
	},
	{
		"id": "52",
		"title": "West Hartford Farmers' Market",
		"description": "Year-round Saturday farmers' market in West Hartford featuring local produce, artisan goods, and community events.",
		"longDescription": "<p>The West Hartford Farmers' Market operates year-round on Saturdays, providing the community with access to fresh, local produce and artisan goods throughout all seasons. Located in the heart of West Hartford, this market serves as a vital community gathering place where residents can connect with local farmers and food producers. The market features a variety of vendors offering everything from seasonal produce to baked goods, supporting the local food economy and promoting sustainable agriculture practices.</p>",
		"image": "/images/resources/image-soon.png",
		"address": {
			"street": "West Hartford Center",
			"city": "West Hartford",
			"state": "Connecticut",
			"zip": "06107"
		},
		"phone": "",
		"hours": {
			"monday": "",
			"tuesday": "",
			"wednesday": "",
			"thursday": "",
			"friday": "",
			"saturday": "9:00 AM - 1:00 PM",
			"sunday": ""
		},
		"externalUrl": "",
		"sponsored": false
	},
	{
		"id": "53",
		"title": "New Canaan Farmers Market",
		"description": "Long-running Saturday farmers' market in New Canaan featuring local farms, artisan vendors, and seasonal specialties.",
		"longDescription": "<p>The New Canaan Farmers Market is a beloved community institution that operates on Saturdays from April through December. This market brings together local farms and artisan vendors to provide the New Canaan community with fresh, seasonal produce and handcrafted goods. The market serves as a central gathering place for the community, fostering connections between residents and local food producers while supporting sustainable agriculture and local businesses in the region.</p>",
		"image": "/images/resources/image-soon.png",
		"address": {
			"street": "Elm Street",
			"city": "New Canaan",
			"state": "Connecticut",
			"zip": "06840"
		},
		"phone": "",
		"hours": {
			"monday": "",
			"tuesday": "",
			"wednesday": "",
			"thursday": "",
			"friday": "",
			"saturday": "10:00 AM - 2:00 PM",
			"sunday": ""
		},
		"externalUrl": "",
		"sponsored": false
	},
	{
		"id": "54",
		"title": "Stonington Village Farmers' Market",
		"description": "Coastal farmers' market in historic Stonington Village offering fresh produce, baked goods, seafood, and local crafts.",
		"longDescription": "<p>The Stonington Village Farmers' Market operates in the picturesque coastal setting of historic Stonington Village. From Memorial Weekend to mid-October, this market offers a wide variety of fresh produce, baked goods, cheese, meat, seafood, flowers, and hand-made crafts. The market takes advantage of its coastal location to feature fresh seafood alongside traditional farm products, creating a unique shopping experience that reflects the maritime heritage of the area while supporting local farmers and artisans.</p>",
		"image": "/images/resources/image-soon.png",
		"address": {
			"street": "Cannon Square",
			"city": "Stonington",
			"state": "Connecticut",
			"zip": "06378"
		},
		"phone": "",
		"hours": {
			"monday": "",
			"tuesday": "",
			"wednesday": "",
			"thursday": "",
			"friday": "",
			"saturday": "9:00 AM - 12:00 PM",
			"sunday": ""
		},
		"externalUrl": "",
		"sponsored": false
	},
	{
		"id": "55",
		"title": "Litchfield Farmers Market",
		"description": "Saturday farmers' market in historic Litchfield featuring local farms, artisan vendors, and community atmosphere.",
		"longDescription": "<p>The Litchfield Farmers Market operates on Saturdays from March through October in the historic town of Litchfield. This market brings together local farms and artisan vendors to serve the Litchfield Hills community with fresh, seasonal produce and handcrafted goods. Set in one of Connecticut's most picturesque towns, the market provides a charming atmosphere for community gathering while supporting local agriculture and small businesses in the region.</p>",
		"image": "/images/resources/image-soon.png",
		"address": {
			"street": "Litchfield Green",
			"city": "Litchfield",
			"state": "Connecticut",
			"zip": "06759"
		},
		"phone": "",
		"hours": {
			"monday": "",
			"tuesday": "",
			"wednesday": "",
			"thursday": "",
			"friday": "",
			"saturday": "10:00 AM - 1:00 PM",
			"sunday": ""
		},
		"externalUrl": "",
		"sponsored": false
	},
	{
		"id": "56",
		"title": "Washington Farmers Market",
		"description": "Saturday farmers' market in Washington, Connecticut, featuring local produce, artisan goods, and community events.",
		"longDescription": "<p>The Washington Farmers Market operates on Saturdays from May through November in the charming town of Washington, Connecticut. This market serves the local community by connecting residents with regional farmers and artisan vendors offering fresh, seasonal produce and handcrafted goods. The market fosters a strong sense of community while supporting sustainable agriculture and local businesses in the scenic Litchfield Hills region.</p>",
		"image": "/images/resources/image-soon.png",
		"address": {
			"street": "Bryan Memorial Town Hall",
			"city": "Washington",
			"state": "Connecticut",
			"zip": "06793"
		},
		"phone": "",
		"hours": {
			"monday": "",
			"tuesday": "",
			"wednesday": "",
			"thursday": "",
			"friday": "",
			"saturday": "9:30 AM - 12:30 PM",
			"sunday": ""
		},
		"externalUrl": "",
		"sponsored": false
	},
	{
		"id": "57",
		"title": "Downtown Milford Farmers Market",
		"description": "Saturday farmers' market in downtown Milford featuring local farms, fresh produce, and artisan vendors.",
		"longDescription": "<p>The Downtown Milford Farmers Market operates on Saturdays from June through October in the heart of downtown Milford. This market brings together local farms and artisan vendors to provide the Milford community with fresh, seasonal produce and handcrafted goods. Located in the downtown area, the market serves as a vibrant community gathering place while supporting local agriculture and small businesses, contributing to the economic vitality of downtown Milford.</p>",
		"image": "/images/resources/image-soon.png",
		"address": {
			"street": "Downtown Milford",
			"city": "Milford",
			"state": "Connecticut",
			"zip": "06460"
		},
		"phone": "",
		"hours": {
			"monday": "",
			"tuesday": "",
			"wednesday": "",
			"thursday": "",
			"friday": "",
			"saturday": "8:30 AM - 12:30 PM",
			"sunday": ""
		},
		"externalUrl": "",
		"sponsored": false
	},
	{
		"id": "58",
		"title": "Rehoboth Beach Farmers Market",
		"description": "Delaware's #1 Farmers Market as ranked by TripAdvisor, featuring 40+ vendors offering fresh food, local produce, flowers, and handmade goods.",
		"longDescription": "<p>Welcome to the Rehoboth Beach Farmers Market! Ranked as Delaware's #1 Farmers Market by TripAdvisor, we offer a variety of fresh food, local produce, flowers, handmade goods, and more from local sellers in our community. Located in Grove Park adjacent to the Visitors Center and next to the Rehoboth Beach Museum, our market operates every Tuesday from May through October, rain or shine. With over 40 vendors, we provide a vibrant community gathering place that supports local agriculture and artisans.</p>",
		"image": "/images/resources/image-soon.png",
		"address": {
			"street": "501 Rehoboth Avenue",
			"city": "Rehoboth Beach",
			"state": "Delaware",
			"zip": "19971"
		},
		"phone": "",
		"hours": {
			"monday": "",
			"tuesday": "10:00 AM - 2:00 PM",
			"wednesday": "",
			"thursday": "",
			"friday": "",
			"saturday": "",
			"sunday": ""
		},
		"externalUrl": "https://www.rbfarmersmarket.com/",
		"sponsored": false
	},
	{
		"id": "59",
		"title": "Historic Lewes Farmers Market",
		"description": "Producer-only farmers market with multiple locations in Lewes, featuring fresh produce, flowers, kombucha, oysters, clams, and local goods.",
		"longDescription": "<p>The Historic Lewes Farmers Market (HLFM) is a nonprofit organization committed to nurturing a vibrant local food system in Delmarva that is sustainable and socially responsible. We bring together our community and farmers that grow our food through our producer-only farmers markets. Operating at multiple locations throughout Lewes during the summer months, we feature fresh produce, flowers, locally brewed kombucha, oysters, clams, and other local goods. Our goal is an equitable distribution system that increases healthy food access, reduces food waste, and benefits our entire community.</p>",
		"image": "/images/resources/image-soon.png",
		"address": {
			"street": "Johnson & Dupont Aves",
			"city": "Lewes",
			"state": "Delaware",
			"zip": "19958"
		},
		"phone": "",
		"hours": {
			"monday": "",
			"tuesday": "",
			"wednesday": "8:00 AM - 11:30 AM",
			"thursday": "",
			"friday": "",
			"saturday": "8:00 AM - 12:00 PM",
			"sunday": ""
		},
		"externalUrl": "https://www.historiclewesfarmersmarket.org/",
		"sponsored": false
	},
	{
		"id": "60",
		"title": "New Castle Farmers Market",
		"description": "Indoor/outdoor market voted 'Best in Delaware' by Delaware Today, featuring Pennsylvania Dutch foods, fresh produce, and over 70 shops.",
		"longDescription": "<p>A feast for the senses since 1954, the New Castle Farmers Market offers the finest and freshest of Pennsylvania Dutch foods and much, much more. Located at the historic 'Hare's Corner' intersection of Route 13 & 273, our market features over 70 individual owner-operated shops including a beautiful PA Dutch section with fresh Lancaster County meats, baked goods, produce and more. Voted 'Best in Delaware' by Delaware Today magazine, we offer amazing food, value and fun for the entire family with knowledgeable merchants bringing you uncommon values and personal service every weekend.</p>",
		"image": "/images/resources/image-soon.png",
		"address": {
			"street": "110 N Dupont Hwy",
			"city": "New Castle",
			"state": "Delaware",
			"zip": "19720"
		},
		"phone": "(302) 588-8928",
		"hours": {
			"monday": "",
			"tuesday": "",
			"wednesday": "",
			"thursday": "9:00 AM - 3:00 PM",
			"friday": "9:00 AM - 8:00 PM",
			"saturday": "9:00 AM - 8:00 PM",
			"sunday": "10:00 AM - 5:00 PM"
		},
		"externalUrl": "https://www.newcastlefarmersmarket.com/",
		"sponsored": false
	},
	{
		"id": "61",
		"title": "Dutch Country Farmers Market",
		"description": "Year-round Amish market in Middletown featuring fresh produce, dairy, deli selections, handcrafted gifts, and furniture.",
		"longDescription": "<p>Welcome to Dutch Country Farmers Market, located in Middletown, Delaware. All the pleasures of Amish country in one place! Stock up for the week with the freshest produce, dairy, and deli selections. Sit down for a homestyle meal at our restaurant or tantalize your taste buds with a tour of our merchants' most delectable dishes. Open Thursday, Friday, and Saturday, our market features a wide variety of merchants for your tastes and interests. Alongside our amazing food vendors, you'll find handcrafted gifts and furniture, small appliance sales and repairs, and more. With so much to offer, Dutch Country Farmers Market has something for everyone!</p>",
		"image": "/images/resources/image-soon.png",
		"address": {
			"street": "701 N Broad St",
			"city": "Middletown",
			"state": "Delaware",
			"zip": "19709"
		},
		"phone": "(302) 285-0851",
		"hours": {
			"monday": "",
			"tuesday": "",
			"wednesday": "",
			"thursday": "8:30 AM - 6:00 PM",
			"friday": "8:30 AM - 6:00 PM",
			"saturday": "8:00 AM - 4:00 PM",
			"sunday": ""
		},
		"externalUrl": "https://delawarefarmersmarket.com/",
		"sponsored": false
	},
	{
		"id": "62",
		"title": "Brandywine Park Farmers Market",
		"description": "New farmers market in Wilmington bringing local vendors and farmers to Brandywine Park on Saturdays through October.",
		"longDescription": "<p>Brand-new to Wilmington in 2025, the Brandywine Park Farmers Market is a collaboration between the Friends of Wilmington Parks and the Spread Good Karma Foundation that brings local vendors and farmers to the fountain in Brandywine Park on Saturdays. After a successful opening day on May 3, the farmers market takes place weekly through October 25. In the event Brandywine Park is occupied by another event on Saturday, the market will take place on the following Sunday instead. This market serves as a vibrant community gathering place while supporting local agriculture and food producers in the Wilmington area.</p>",
		"image": "/images/resources/image-soon.png",
		"address": {
			"street": "1000 North Park Drive",
			"city": "Wilmington",
			"state": "Delaware",
			"zip": "19802"
		},
		"phone": "",
		"hours": {
			"monday": "",
			"tuesday": "",
			"wednesday": "",
			"thursday": "",
			"friday": "",
			"saturday": "See website for seasonal hours",
			"sunday": ""
		},
		"externalUrl": "https://www.spreadgoodkarmafoundation.org/thebrandywineparkfarmersmarket",
		"sponsored": false
	},
	{
		"id": "63",
		"title": "Downtown Farmers Market at Rodney Square",
		"description": "Wednesday farmers market in downtown Wilmington featuring food trucks, fresh produce, flowers, herbs, and handmade crafts.",
		"longDescription": "<p>On Wednesdays from 10 a.m. to 2 p.m., Wilmington residents flock to Rodney Square for the Downtown Farmers Market. This vibrant market features food truck fare, fresh produce, flowers and herbs, handmade crafts, and more. The season runs from May through October, providing downtown workers and residents with convenient access to fresh, local products. Located in the heart of downtown Wilmington, this market serves as an important community gathering place that supports local vendors and brings fresh food access to the urban core.</p>",
		"image": "/images/resources/image-soon.png",
		"address": {
			"street": "Rodney Square",
			"city": "Wilmington",
			"state": "Delaware",
			"zip": "19801"
		},
		"phone": "",
		"hours": {
			"monday": "",
			"tuesday": "",
			"wednesday": "10:00 AM - 2:00 PM",
			"thursday": "",
			"friday": "",
			"saturday": "",
			"sunday": ""
		},
		"externalUrl": "https://downtownwilmingtonde.com/initiatives-blog/2015/8/4/farmers-market",
		"sponsored": false
	},
	{
		"id": "64",
		"title": "Riverwalk Farmers Market",
		"description": "Downtown Milford's market celebrating 30 years of serving the community with local farmers, bakers, and artisans.",
		"longDescription": "<p>Downtown Milford's Riverwalk Farmers Market celebrates 30 years of serving the community. This beloved market helps preserve the small-town community feel of Milford while supporting local farmers, bakers, and artisans. Operating on Saturdays from 9 a.m. to 1 p.m. through October, visitors can shop local in style along the scenic riverwalk. The market features a variety of vendors offering fresh produce, baked goods, and handcrafted items, making it a cornerstone of the downtown Milford community and a destination for those seeking quality local products.</p>",
		"image": "/images/resources/image-soon.png",
		"address": {
			"street": "1 South Walnut Street",
			"city": "Milford",
			"state": "Delaware",
			"zip": "19963"
		},
		"phone": "",
		"hours": {
			"monday": "",
			"tuesday": "",
			"wednesday": "",
			"thursday": "",
			"friday": "",
			"saturday": "9:00 AM - 1:00 PM",
			"sunday": ""
		},
		"externalUrl": "https://www.downtownmilford.org/riverwalk-farmers-market",
		"sponsored": false
	},
	{
		"id": "65",
		"title": "Newark Natural Foods Co-Op Farmers Market",
		"description": "Sunday farmers market at Newark Natural Foods Co-Op featuring locally sourced foods and fresh produce from May to November.",
		"longDescription": "<p>The Newark Natural Foods Co-Op offers Newark residents a place to find locally sourced foods and fresh produce all year round. On Sundays from May to November, the Co-Op hosts an open-air market in the shopping center parking lot from 9:30 a.m. to 2 p.m. This market provides an opportunity to support local businesses and foster relationships with the folks behind the products you buy. Located at the Newark Shopping Center, the market serves the University of Delaware community and surrounding areas with access to fresh, local, and organic products.</p>",
		"image": "/images/resources/image-soon.png",
		"address": {
			"street": "230 East Main Street",
			"city": "Newark",
			"state": "Delaware",
			"zip": "19711"
		},
		"phone": "",
		"hours": {
			"monday": "",
			"tuesday": "",
			"wednesday": "",
			"thursday": "",
			"friday": "",
			"saturday": "",
			"sunday": "9:30 AM - 2:00 PM"
		},
		"externalUrl": "https://www.newark.coop/farmers-market",
		"sponsored": false
	},
	{
		"id": "66",
		"title": "Cape Coral Farmers Market",
		"description": "Award-winning downtown farmers market voted Best of the Cape for 6 consecutive years, featuring fresh produce, baked goods, and artisanal foods.",
		"longDescription": "<p>The Cape Coral Farmers Market is a vibrant community gathering place voted Best of the Cape for Farmers Markets for the last 6 years. Located in downtown Cape Coral at Club Square, this market is always overflowing with fresh, local, and healthy produce, fruits, and foods, along with melt-in-your-mouth baked goods, made-on-site guacamole, salsas, homemade jams & jellies, pickles & olive mixes, cheeses, take-home foods and much more. With over 40 vendors, the market provides a friendly, welcoming atmosphere every Saturday morning year-round.</p>",
		"image": "/images/resources/image-soon.png",
		"address": {
			"street": "SE 47th Terrace & SE 10th Place",
			"city": "Cape Coral",
			"state": "Florida",
			"zip": "33904"
		},
		"phone": "(239) 549-6900",
		"hours": {
			"monday": "",
			"tuesday": "",
			"wednesday": "",
			"thursday": "",
			"friday": "",
			"saturday": "8:00 AM - 1:00 PM",
			"sunday": ""
		},
		"externalUrl": "https://capecoralfarmersmarket.com/",
		"sponsored": false
	},
	{
		"id": "67",
		"title": "Winter Garden Farmers Market",
		"description": "Award-winning year-round farmers market in historic downtown Winter Garden, featuring local produce, artisanal goods, and a vibrant community atmosphere.",
		"longDescription": "<p>The award-winning Winter Garden Farmers Market takes place every Saturday year-round from 8:00 am to 1:00 pm at the Downtown Pavilion. Located in the heart of historic downtown Winter Garden, the market is surrounded by quaint boutiques, shops, restaurants, bakeries, coffee cafes, museums, and an art gallery. Visitors can extend their outing beyond the market to enjoy the downtown area, including the Interactive Fountain and adjacent Butterfly Sculpture Park. The market features a diverse selection of vendors offering fresh produce, artisanal foods, handcrafted goods, and more in a family-friendly environment.</p>",
		"image": "/images/resources/image-soon.png",
		"address": {
			"street": "104 S. Lakeview Avenue",
			"city": "Winter Garden",
			"state": "Florida",
			"zip": "34787"
		},
		"phone": "",
		"hours": {
			"monday": "",
			"tuesday": "",
			"wednesday": "",
			"thursday": "",
			"friday": "",
			"saturday": "8:00 AM - 1:00 PM",
			"sunday": ""
		},
		"externalUrl": "https://www.wintergardenfarmersmarket.com/",
		"sponsored": false
	},
	{
		"id": "68",
		"title": "St. Petersburg Saturday Morning Market",
		"description": "One of Florida's largest farmers markets featuring over 130 vendors with farm-fresh produce, artisanal foods, and unique crafts in downtown St. Petersburg.",
		"longDescription": "<p>The St. Petersburg Saturday Morning Market is a vibrant celebration of all things local, featuring farm-fresh produce, artisanal food products, and a wide range of arts and crafts. Known as \"The Heart of St. Petersburg,\" this market has become one of Florida's largest with over 130 vendors. Visitors can wander through rows of vendors, sampling delicious treats from food trucks or picking up unique pieces of jewelry or art. The market's friendly atmosphere and diverse offerings make it a popular destination for both locals and visitors from around the world. During summer months (June-August), the market relocates to Williams Park with adjusted hours.</p>",
		"image": "/images/resources/image-soon.png",
		"address": {
			"street": "350 2nd Ave",
			"city": "St. Petersburg",
			"state": "Florida",
			"zip": "33701"
		},
		"phone": "",
		"hours": {
			"monday": "",
			"tuesday": "",
			"wednesday": "",
			"thursday": "",
			"friday": "",
			"saturday": "9:00 AM - 1:00 PM",
			"sunday": ""
		},
		"externalUrl": "https://saturdaymorningmarket.com/",
		"sponsored": false
	},
	{
		"id": "69",
		"title": "Yellow Green Farmers Market",
		"description": "South Florida's largest indoor/outdoor farmers market with over 300 vendors offering fresh produce, prepared foods, and artisanal goods in Hollywood.",
		"longDescription": "<p>Yellow Green Farmers Market is South Florida's largest farmers market, spanning 100,000 square feet with over 300 booths in an indoor/outdoor setting. Located in Hollywood, this year-round market offers a diverse selection of fresh produce, prepared foods, artisanal goods, and unique crafts from local vendors. The market creates a vibrant community space where visitors can shop, dine, and connect with local producers and artisans. Open every Saturday and Sunday, Yellow Green Farmers Market provides a one-stop destination for those seeking fresh, local products in a lively atmosphere with plenty of parking and amenities for a full day of shopping and exploration.</p>",
		"image": "/images/resources/image-soon.png",
		"address": {
			"street": "3080 Sheridan Street",
			"city": "Hollywood",
			"state": "Florida",
			"zip": "33021"
		},
		"phone": "(954) 513-3990",
		"hours": {
			"monday": "",
			"tuesday": "",
			"wednesday": "",
			"thursday": "",
			"friday": "",
			"saturday": "10:00 AM - 6:30 PM",
			"sunday": "10:00 AM - 6:30 PM"
		},
		"externalUrl": "https://ygfarmersmarket.com/",
		"sponsored": false
	},
	{
		"id": "70",
		"title": "Marco Island Farmers Market",
		"description": "Seasonal farmers market at Veterans Community Park featuring fresh produce, baked goods, and artisanal products from November through April.",
		"longDescription": "<p>The Marco Island Farmers Market is a seasonal community gathering place operating every Wednesday from November through April at Veterans Community Park. This popular market features a diverse array of vendors offering fresh produce, flowers, baked goods, seafood, and artisanal products. Visitors can browse through stalls of locally grown fruits and vegetables, homemade jams and jellies, fresh-cut flowers, and handcrafted items while enjoying the beautiful Marco Island weather. The market has become a beloved tradition for both residents and visitors, providing access to fresh, local products in a friendly, open-air environment.</p>",
		"image": "/images/resources/image-soon.png",
		"address": {
			"street": "901 Park Avenue",
			"city": "Marco Island",
			"state": "Florida",
			"zip": "34145"
		},
		"phone": "",
		"hours": {
			"monday": "",
			"tuesday": "",
			"wednesday": "7:30 AM - 1:00 PM",
			"thursday": "",
			"friday": "",
			"saturday": "",
			"sunday": ""
		},
		"externalUrl": "https://www.cityofmarcoisland.com/page/farmers-market",
		"sponsored": false
	},
	{
		"id": "71",
		"title": "Orlando Farmers Market at Lake Eola",
		"description": "Weekly Sunday market at Lake Eola Park featuring fresh produce, plants, food vendors, and artisanal goods in downtown Orlando.",
		"longDescription": "<p>The Orlando Farmers Market at Lake Eola Park, also known as the \"Orlando Farmers Market at Lake Eola,\" is a weekly Sunday tradition in downtown Orlando. Set against the picturesque backdrop of Lake Eola, this market features a diverse selection of vendors offering fresh produce, plants, baked goods, prepared foods, and artisanal crafts. Visitors can browse through stalls while enjoying live music and the scenic park atmosphere. The market creates a vibrant community space where locals and tourists alike can connect with local farmers and artisans, sample delicious foods, and enjoy a relaxing Sunday in one of Orlando's most beloved parks.</p>",
		"image": "/images/resources/image-soon.png",
		"address": {
			"street": "20 N Eola Drive",
			"city": "Orlando",
			"state": "Florida",
			"zip": "32801"
		},
		"phone": "",
		"hours": {
			"monday": "",
			"tuesday": "",
			"wednesday": "",
			"thursday": "",
			"friday": "",
			"saturday": "",
			"sunday": "10:00 AM - 3:00 PM"
		},
		"externalUrl": "https://www.orlandofarmersmarket.com/",
		"sponsored": false
	},
	{
		"id": "72",
		"title": "Coconut Grove Organic Farmers Market",
		"description": "Miami's original organic farmers market operating since 1996, featuring fresh produce, raw foods, and wellness products in a tropical setting.",
		"longDescription": "<p>The Coconut Grove Organic Farmers Market, established in 1996, is Miami's original and longest-running organic market. Located in the historic and bohemian Coconut Grove neighborhood, this market specializes in organic and locally grown produce, raw foods, vegan options, and wellness products. The market creates a tropical oasis where visitors can shop for fresh fruits and vegetables, sample organic prepared foods, and discover unique artisanal products in a laid-back atmosphere. Operating year-round on Saturdays, the Coconut Grove Organic Farmers Market has become a beloved institution for health-conscious shoppers and those seeking sustainable, locally produced goods in the Miami area.</p>",
		"image": "/images/resources/image-soon.png",
		"address": {
			"street": "3300 Grand Avenue",
			"city": "Miami",
			"state": "Florida",
			"zip": "33133"
		},
		"phone": "",
		"hours": {
			"monday": "",
			"tuesday": "",
			"wednesday": "",
			"thursday": "",
			"friday": "",
			"saturday": "10:00 AM - 7:00 PM",
			"sunday": ""
		},
		"externalUrl": "https://www.glaserorganicfarms.com/",
		"sponsored": false
	},
	{
		"id": "73",
		"title": "Sarasota Farmers Market",
		"description": "Year-round downtown market operating since 1979, featuring over 70 vendors with fresh produce, prepared foods, and artisanal goods.",
		"longDescription": "<p>The Sarasota Farmers Market has been a downtown tradition since 1979, operating year-round every Saturday morning. This producer-only market features over 70 vendors offering a diverse selection of fresh produce, plants, prepared foods, and artisanal products. Located in the heart of downtown Sarasota, the market creates a vibrant community gathering place where visitors can connect with local farmers and artisans while enjoying live music and the charming downtown atmosphere. The Sarasota Farmers Market is committed to supporting local agriculture and small businesses, providing residents and visitors with access to fresh, locally produced goods in a festive, open-air environment.</p>",
		"image": "/images/resources/image-soon.png",
		"address": {
			"street": "1 N Lemon Avenue",
			"city": "Sarasota",
			"state": "Florida",
			"zip": "34236"
		},
		"phone": "(941) 225-9256",
		"hours": {
			"monday": "",
			"tuesday": "",
			"wednesday": "",
			"thursday": "",
			"friday": "",
			"saturday": "7:00 AM - 1:00 PM",
			"sunday": ""
		},
		"externalUrl": "https://www.sarasotafarmersmarket.org/",
		"sponsored": false
	},
	{
		"id": "74",
		"title": "Grant Park Farmers Market",
		"description": "Award-winning Sunday market voted Best Farmers Market by Creative Loafing and Atlanta Magazine, featuring celebrity chef demonstrations.",
		"longDescription": "<p>The Grant Park Farmers Market has been voted Best Farmers Market in Creative Loafing and Atlanta Magazine. This vibrant Sunday market features weekly free celebrity chef demonstrations with top chefs including Hugh Acheson, Kevin Gillespie, Steven Satterfield, and Virginia Willis. Located across from the Beacon ATL, the market offers locally-grown vegetables, meats, breads, and artisanal foods with plenty of seating and picnic areas for the community to enjoy.</p>",
		"image": "/images/resources/image-soon.png",
		"address": {
			"street": "1040 Grant St SE",
			"city": "Atlanta",
			"state": "Georgia",
			"zip": "30315"
		},
		"phone": "",
		"hours": {
			"monday": "",
			"tuesday": "",
			"wednesday": "",
			"thursday": "",
			"friday": "",
			"saturday": "",
			"sunday": "9:00 AM - 1:00 PM"
		},
		"externalUrl": "https://cfmatl.org/grantpark/",
		"sponsored": false
	},
	{
		"id": "75",
		"title": "Athens Farmers Market",
		"description": "Year-round farmers market with two locations in Athens, featuring local, organic, and sustainable produce with live music and community events.",
		"longDescription": "<p>The Athens Farmers Market operates year-round with two locations: Saturdays at Bishop Park and Wednesdays at Creature Comforts Brewing Co. Known for their commitment to local, organic, and sustainable practices, the market features live music at every market, children's activities, cooking demonstrations, and special events throughout the year. They offer SNAP matching programs and FARMRx produce prescription programs, providing over $50,000 of free produce to the community annually.</p>",
		"image": "/images/resources/image-soon.png",
		"address": {
			"street": "705 Sunset Dr",
			"city": "Athens",
			"state": "Georgia",
			"zip": "30606"
		},
		"phone": "",
		"hours": {
			"monday": "",
			"tuesday": "",
			"wednesday": "5:00 PM - 8:00 PM",
			"thursday": "",
			"friday": "",
			"saturday": "8:00 AM - 12:00 PM",
			"sunday": ""
		},
		"externalUrl": "http://athensfarmersmarket.net/",
		"sponsored": false
	},
	{
		"id": "76",
		"title": "Morningside Farmers Market",
		"description": "Atlanta's first and only certified organic-only farmers market, serving the community since 1995 with high-quality organic produce and local goods.",
		"longDescription": "<p>Established in 1995, the Morningside Farmers Market is Atlanta's first and only farmers market that requires all produce to be certified organic. Located at Morningside Presbyterian Church, this intimate community market prides itself on supporting local businesses and offering the highest quality food you can trust. All market produce is grown using organic practices or certified naturally grown, creating a family-friendly environment where neighbors can connect with local farmers and artisans.</p>",
		"image": "/images/resources/image-soon.png",
		"address": {
			"street": "1411 N Morningside Dr NE",
			"city": "Atlanta",
			"state": "Georgia",
			"zip": "30306"
		},
		"phone": "",
		"hours": {
			"monday": "",
			"tuesday": "",
			"wednesday": "",
			"thursday": "",
			"friday": "",
			"saturday": "8:00 AM - 11:30 AM",
			"sunday": ""
		},
		"externalUrl": "https://www.morningsidemarket.com/",
		"sponsored": false
	},
	{
		"id": "77",
		"title": "East Atlanta Village Farmers Market",
		"description": "One of Atlanta's longest-standing markets since 2006, offering fresh seasonal produce, organic meats, dairy, eggs, and artisan goods.",
		"longDescription": "<p>Started in 2006, the East Atlanta Village Farmers Market is one of Atlanta's longest-standing markets. Located at 572 Stokeswood Avenue, this Thursday market offers fresh, seasonal produce, organic meats, dairy, eggs, artisan breads, and handmade goods like soaps and jewelry. The market features chef-led cooking demos that highlight local ingredients and flavors, and is easily accessible via MARTA bus lines. Open March through November, with parking available behind the pub or along Stokeswood Avenue.</p>",
		"image": "/images/resources/image-soon.png",
		"address": {
			"street": "572 Stokeswood Ave",
			"city": "Atlanta",
			"state": "Georgia",
			"zip": "30316"
		},
		"phone": "",
		"hours": {
			"monday": "",
			"tuesday": "",
			"wednesday": "",
			"thursday": "4:00 PM - 8:00 PM",
			"friday": "",
			"saturday": "",
			"sunday": ""
		},
		"externalUrl": "https://cfmatl.org/eastatlanta/",
		"sponsored": false
	},
	{
		"id": "78",
		"title": "Freedom Farmers Market",
		"description": "Year-round Saturday market near the Jimmy Carter Presidential Library, bringing sustainably grown local foods to intown Atlanta for over a decade.",
		"longDescription": "<p>Located outside the Jimmy Carter Presidential Library near Freedom Park, the Freedom Farmers Market has been bringing sustainably grown, local foods to intown Atlanta for more than a decade. Open year-round on Saturdays from 8:30 a.m. to noon, visitors will find fresh produce, dairy, grass-fed meats, handmade pasta, preserves, and baked goods. The market offers coffee and pastries while browsing and features live music. Accessible via walking or biking trails from Downtown to Little Five Points, Candler Park, and nearby MARTA bus lines.</p>",
		"image": "/images/resources/image-soon.png",
		"address": {
			"street": "453 Freedom Parkway NE",
			"city": "Atlanta",
			"state": "Georgia",
			"zip": "30307"
		},
		"phone": "",
		"hours": {
			"monday": "",
			"tuesday": "",
			"wednesday": "",
			"thursday": "",
			"friday": "",
			"saturday": "8:30 AM - 12:00 PM",
			"sunday": ""
		},
		"externalUrl": "https://cfmatl.org/freedom/",
		"sponsored": false
	},
	{
		"id": "79",
		"title": "Emory Farmers Market",
		"description": "University community market at McDonough Plaza bringing fresh, locally sourced produce and artisan goods to students, faculty, and visitors.",
		"longDescription": "<p>The Emory Farmers Market brings fresh, locally sourced produce and artisan goods to the university community at McDonough Plaza. This market offers an opportunity for students, faculty, and visitors to connect with local vendors while enjoying a variety of seasonal fruits, vegetables, baked goods, and sustainable products. Located at the Cox Hall Pedestrian Bridge at 569 Asbury Circle, the market creates a vibrant community space on the Emory University campus.</p>",
		"image": "/images/resources/image-soon.png",
		"address": {
			"street": "569 Asbury Circle",
			"city": "Atlanta",
			"state": "Georgia",
			"zip": "30322"
		},
		"phone": "",
		"hours": {
			"monday": "",
			"tuesday": "",
			"wednesday": "",
			"thursday": "See website for seasonal hours",
			"friday": "",
			"saturday": "",
			"sunday": ""
		},
		"externalUrl": "https://cfmatl.org/emory/",
		"sponsored": false
	},
	{
		"id": "80",
		"title": "Downtown Valdosta Farm Days",
		"description": "Producers-only farmers market in downtown Valdosta featuring local farmers and artisans in a vibrant community setting.",
		"longDescription": "<p>Downtown Valdosta Farm Days is a producers-only farmers market that brings local farmers and artisans to downtown Valdosta. This market emphasizes direct relationships between consumers and the people who grow and make their products, ensuring freshness and supporting the local agricultural community. Located in the heart of downtown Valdosta, the market creates a vibrant community gathering space where residents can access fresh, locally produced goods while supporting regional farmers and food producers.</p>",
		"image": "/images/resources/image-soon.png",
		"address": {
			"street": "Downtown Valdosta",
			"city": "Valdosta",
			"state": "Georgia",
			"zip": "31601"
		},
		"phone": "",
		"hours": {
			"monday": "",
			"tuesday": "",
			"wednesday": "",
			"thursday": "",
			"friday": "",
			"saturday": "See website for seasonal hours",
			"sunday": ""
		},
		"externalUrl": "https://www.valdostamainstreet.com/farm-days",
		"sponsored": false
	},
	{
		"id": "81",
		"title": "Oakhurst Farmers Market",
		"description": "Community-focused farmers market in Decatur's Oakhurst neighborhood, part of the Community Farmers Markets network.",
		"longDescription": "<p>The Oakhurst Farmers Market serves the Decatur community in the charming Oakhurst neighborhood. As part of the Community Farmers Markets network, this market focuses on building community connections while providing access to fresh, local produce and artisan goods. The market creates a welcoming space for neighbors to gather, shop for quality local products, and support regional farmers and food producers in a family-friendly environment.</p>",
		"image": "/images/resources/image-soon.png",
		"address": {
			"street": "Oakhurst Neighborhood",
			"city": "Decatur",
			"state": "Georgia",
			"zip": "30030"
		},
		"phone": "",
		"hours": {
			"monday": "",
			"tuesday": "",
			"wednesday": "",
			"thursday": "",
			"friday": "",
			"saturday": "See website for seasonal hours",
			"sunday": ""
		},
		"externalUrl": "https://cfmatl.org/oakhurst/",
		"sponsored": false
	},
	{
		"id": "82",
		"title": "KCC Farmers Market",
		"description": "Award-winning farmers market at Kapiolani Community College, voted Best of Hawaii 2020 & 2021 by KITV4.",
		"longDescription": "<p>The KCC Farmers Market at Kapiolani Community College is one of Hawaii's most celebrated farmers markets, winning Best of Hawaii awards in both 2020 and 2021 by KITV4. Located in the heart of Honolulu with stunning Diamond Head views, this Saturday market features over 100 vendors offering fresh local produce, prepared foods, flowers, and artisan goods. The market is known for its authentic Hawaii-grown products and vibrant community atmosphere. Free parking is available in lots A, C, and E.</p>",
		"image": "/images/resources/image-soon.png",
		"address": {
			"street": "4303 Diamond Head Rd",
			"city": "Honolulu",
			"state": "Hawaii",
			"zip": "96816"
		},
		"phone": "",
		"hours": {
			"monday": "",
			"tuesday": "",
			"wednesday": "",
			"thursday": "",
			"friday": "",
			"saturday": "7:30 AM - 11:00 AM",
			"sunday": ""
		},
		"externalUrl": "https://hfbf.org/farmers-markets/kcc/",
		"sponsored": false
	},
	{
		"id": "83",
		"title": "Farm Lovers Kaka'ako Farmers Market",
		"description": "Ranked #3 Best Farmers Market in the USA 2025 by USA Today, featuring Hawaii-grown products in downtown Honolulu.",
		"longDescription": "<p>Farm Lovers Kaka'ako Farmers Market has achieved national recognition, being ranked #3 Best Farmers Market in the USA for 2025 by USA Today. Located in the vibrant Kaka'ako district of Honolulu, this Saturday market is the heartbeat of the community, offering an incredible selection of only Hawaii-grown products including fresh produce, flowers, plants, beef, pork, poultry, seafood, value-added products, and ready-to-eat foods. The market provides a truly authentic Hawaiian farmers market experience with local vendors and community atmosphere.</p>",
		"image": "/images/resources/image-soon.png",
		"address": {
			"street": "919 & 1011 Ala Moana Blvd",
			"city": "Honolulu",
			"state": "Hawaii",
			"zip": "96814"
		},
		"phone": "",
		"hours": {
			"monday": "",
			"tuesday": "",
			"wednesday": "",
			"thursday": "",
			"friday": "",
			"saturday": "8:00 AM - 12:00 PM",
			"sunday": ""
		},
		"externalUrl": "https://www.farmloversmarkets.com/",
		"sponsored": false
	},
	{
		"id": "84",
		"title": "Hilo Farmers Market",
		"description": "Big Island's premier farmers market open seven days a week, featuring local produce, prepared foods, and artisan goods.",
		"longDescription": "<p>The Hilo Farmers Market is the Big Island's most popular farmers market, located at the corner of Mamo Street and Kamehameha Avenue in historic downtown Hilo overlooking Hilo Bay. Open seven days a week from 7:00 AM to 3:00 PM, the market features 'big market days' on Wednesdays and Saturdays with over 200 vendors, while smaller market days (Monday, Tuesday, Thursday, Friday, and Sunday) feature 20-30 vendors. Visitors can find fresh tropical fruits, vegetables, flowers, prepared foods, and local artisan goods. The market is famous for its variety of tropical fruits and authentic Hawaiian atmosphere.</p>",
		"image": "/images/resources/image-soon.png",
		"address": {
			"street": "Corner of Kamehameha Ave & Mamo St",
			"city": "Hilo",
			"state": "Hawaii",
			"zip": "96720"
		},
		"phone": "+1 808-933-1000",
		"hours": {
			"monday": "7:00 AM - 3:00 PM",
			"tuesday": "7:00 AM - 3:00 PM",
			"wednesday": "7:00 AM - 3:00 PM",
			"thursday": "7:00 AM - 3:00 PM",
			"friday": "7:00 AM - 3:00 PM",
			"saturday": "7:00 AM - 3:00 PM",
			"sunday": "7:00 AM - 3:00 PM"
		},
		"externalUrl": "http://hilofarmersmarket.com/",
		"sponsored": false
	},
	{
		"id": "85",
		"title": "Farm Lovers Pearlridge Market",
		"description": "Saturday farmers market at Pearlridge Mall featuring Hawaii-grown products and local vendors.",
		"longDescription": "<p>Farm Lovers Pearlridge Market is part of the award-winning Farm Lovers Markets network, located at Pearlridge Mall Wai Makai in Aiea. This Saturday market offers an authentic farmers market experience with only Hawaii-grown products including fresh produce, flowers, plants, beef, pork, poultry, seafood, value-added products, and ready-to-eat foods. The market provides convenient shopping for West Oahu residents and visitors, featuring local farmers and artisans in a family-friendly mall setting.</p>",
		"image": "/images/resources/image-soon.png",
		"address": {
			"street": "98-180 Kamehameha Hwy",
			"city": "Aiea",
			"state": "Hawaii",
			"zip": "96701"
		},
		"phone": "",
		"hours": {
			"monday": "",
			"tuesday": "",
			"wednesday": "",
			"thursday": "",
			"friday": "",
			"saturday": "8:00 AM - 12:00 PM",
			"sunday": ""
		},
		"externalUrl": "https://www.farmloversmarkets.com/",
		"sponsored": false
	},
	{
		"id": "86",
		"title": "Farm Lovers Kailua Market",
		"description": "Sunday farmers market in beautiful Kailua featuring Hawaii-grown products and beachside location.",
		"longDescription": "<p>Farm Lovers Kailua Market brings the authentic farmers market experience to the beautiful windward side of Oahu. Located next to Adventist Health Castle in Kailua, this Sunday market features only Hawaii-grown products including fresh produce, flowers, plants, beef, pork, poultry, seafood, value-added products, and ready-to-eat foods. The market serves both locals and visitors to the famous Kailua Beach area, offering a perfect opportunity to shop for fresh local products while enjoying the scenic beauty of windward Oahu.</p>",
		"image": "/images/resources/image-soon.png",
		"address": {
			"street": "640 Ulukahiki Street",
			"city": "Kailua",
			"state": "Hawaii",
			"zip": "96734"
		},
		"phone": "",
		"hours": {
			"monday": "",
			"tuesday": "",
			"wednesday": "",
			"thursday": "",
			"friday": "",
			"saturday": "",
			"sunday": "8:00 AM - 12:00 PM"
		},
		"externalUrl": "https://www.farmloversmarkets.com/",
		"sponsored": false
	},
	{
		"id": "87",
		"title": "Farm Lovers Hale'iwa Market",
		"description": "Thursday afternoon farmers market in historic Haleiwa featuring Hawaii-grown products and North Shore charm.",
		"longDescription": "<p>Farm Lovers Hale'iwa Market brings the authentic farmers market experience to the historic North Shore town of Haleiwa. Located at the Waialua Community Association's Historic Haleiwa Gym, this Thursday afternoon market features only Hawaii-grown products including fresh produce, flowers, plants, beef, pork, poultry, seafood, value-added products, and ready-to-eat foods. The market serves the North Shore community and visitors exploring the famous surfing beaches, offering a unique opportunity to shop for fresh local products in one of Oahu's most charming towns.</p>",
		"image": "/images/resources/image-soon.png",
		"address": {
			"street": "66-434 Kamehameha Highway",
			"city": "Haleiwa",
			"state": "Hawaii",
			"zip": "96712"
		},
		"phone": "",
		"hours": {
			"monday": "",
			"tuesday": "",
			"wednesday": "",
			"thursday": "2:00 PM - 6:00 PM",
			"friday": "",
			"saturday": "",
			"sunday": ""
		},
		"externalUrl": "https://www.farmloversmarkets.com/",
		"sponsored": false
	},
	{
		"id": "88",
		"title": "Mililani Farmers Market",
		"description": "Hawaii Farm Bureau farmers market in Mililani featuring authentic Hawaii-grown products.",
		"longDescription": "<p>The Mililani Farmers Market is operated by the Hawaii Farm Bureau Federation and features an incredible selection of only Hawaii-grown products including fresh produce, flowers, plants, beef, pork, poultry, seafood, value-added products, and ready-to-eat foods. Located in the planned community of Mililani in central Oahu, this market serves residents with authentic local products from Hawaii farmers and producers. The market emphasizes supporting local agriculture and providing fresh, quality products to the community.</p>",
		"image": "/images/resources/image-soon.png",
		"address": {
			"street": "See website for location details",
			"city": "Mililani",
			"state": "Hawaii",
			"zip": ""
		},
		"phone": "",
		"hours": {
			"monday": "See website for seasonal hours",
			"tuesday": "See website for seasonal hours",
			"wednesday": "See website for seasonal hours",
			"thursday": "See website for seasonal hours",
			"friday": "See website for seasonal hours",
			"saturday": "See website for seasonal hours",
			"sunday": "See website for seasonal hours"
		},
		"externalUrl": "https://hfbf.org/farmers-markets/",
		"sponsored": false
	},
	{
		"id": "89",
		"title": "Honolulu Farmers Market",
		"description": "Hawaii Farm Bureau farmers market in Honolulu featuring authentic Hawaii-grown products.",
		"longDescription": "<p>The Honolulu Farmers Market is operated by the Hawaii Farm Bureau Federation and features an incredible selection of only Hawaii-grown products including fresh produce, flowers, plants, beef, pork, poultry, seafood, value-added products, and ready-to-eat foods. Located in Honolulu, this market serves the urban community with authentic local products from Hawaii farmers and producers. The market emphasizes supporting local agriculture and providing fresh, quality products to residents and visitors in the state capital.</p>",
		"image": "/images/resources/image-soon.png",
		"address": {
			"street": "See website for location details",
			"city": "Honolulu",
			"state": "Hawaii",
			"zip": ""
		},
		"phone": "",
		"hours": {
			"monday": "See website for seasonal hours",
			"tuesday": "See website for seasonal hours",
			"wednesday": "See website for seasonal hours",
			"thursday": "See website for seasonal hours",
			"friday": "See website for seasonal hours",
			"saturday": "See website for seasonal hours",
			"sunday": "See website for seasonal hours"
		},
		"externalUrl": "https://hfbf.org/farmers-markets/",
		"sponsored": false
	},
	{
		"id": "90",
		"title": "Boise Farmers Market",
		"description": "Idaho's premier farmers market featuring locally grown produce, artisan goods, and ready-to-eat foods in downtown Boise.",
		"longDescription": "<p>The Boise Farmers Market supports a regenerative, healthy food and agricultural system by operating a vibrant marketplace featuring locally grown and crafted products. Located at 1500 Shoreline Drive, the market offers fresh local seasonal vegetables and fruit, many types of locally raised protein, breads and pastries, honey, jams and sauces, fresh-roasted coffee, and a delicious selection of ready-to-eat foods. Operating every Saturday from April through October, this market embodies their motto: 'Farmers you can trust, food you can trace.'</p>",
		"image": "/images/resources/image-soon.png",
		"address": {
			"street": "1500 Shoreline Dr",
			"city": "Boise",
			"state": "Idaho",
			"zip": "83702"
		},
		"phone": "+1 208-608-7300",
		"hours": {
			"monday": "",
			"tuesday": "",
			"wednesday": "",
			"thursday": "",
			"friday": "",
			"saturday": "9:00 AM - 1:00 PM",
			"sunday": ""
		},
		"externalUrl": "https://theboisefarmersmarket.com/",
		"sponsored": false
	},
	{
		"id": "91",
		"title": "Nampa Farmers Market",
		"description": "Award-winning farmers market voted Best in Idaho, 11th Best in America, and Best in the Pacific Region.",
		"longDescription": "<p>The Nampa Farmers Market has been a cornerstone of downtown Nampa since 1989, operating every Saturday at Lloyd Square Park from April through November. This exceptional market has earned prestigious recognition as the Best Farmers Market in Idaho, ranked 11th Best in America, and Best in the Pacific Region. Everything at the market is sourced from within a 100-mile radius, ensuring the freshest local produce, handcrafted goods, and artisan foods. The market features online pre-ordering through the Reko app, making it convenient for customers to secure their favorite items from trusted local vendors.</p>",
		"image": "/images/resources/image-soon.png",
		"address": {
			"street": "1100 1st St S",
			"city": "Nampa",
			"state": "Idaho",
			"zip": "83651"
		},
		"phone": "+1 208-468-5555",
		"hours": {
			"monday": "",
			"tuesday": "",
			"wednesday": "",
			"thursday": "",
			"friday": "",
			"saturday": "9:00 AM - 1:00 PM",
			"sunday": ""
		},
		"externalUrl": "http://nampafarmersmarket.com/",
		"sponsored": false
	},
	{
		"id": "92",
		"title": "Moscow Farmers Market",
		"description": "Nationally ranked farmers market, consistently placing in the top 25 in America and #1 in Idaho.",
		"longDescription": "<p>The Moscow Farmers Market is a nationally recognized treasure, consistently ranking among the top 25 farmers markets in America and holding the #1 position in Idaho. In 2021, it achieved its best ranking as 8th Nationwide, 2nd in the Pacific Region, and 1st in Idaho. Located in downtown Moscow, this market has been serving the community for over a decade with fresh, locally-grown produce and artisan goods. The market operates year-round with seasonal schedules and has earned recognition from the American Farmland Trust for its exceptional quality and community impact.</p>",
		"image": "/images/resources/image-soon.png",
		"address": {
			"street": "206 E 3rd St",
			"city": "Moscow",
			"state": "Idaho",
			"zip": "83843"
		},
		"phone": "+1 208-883-7132",
		"hours": {
			"monday": "",
			"tuesday": "",
			"wednesday": "",
			"thursday": "",
			"friday": "",
			"saturday": "8:00 AM - 1:00 PM",
			"sunday": ""
		},
		"externalUrl": "https://markets.farmland.org/market/moscow-farmers-market/",
		"sponsored": false
	},
	{
		"id": "93",
		"title": "Idaho Falls Farmers Market",
		"description": "Beloved local tradition offering fresh produce, meats, baked goods, and crafts every Saturday in Eastern Idaho.",
		"longDescription": "<p>The Idaho Falls Farmers Market is a beloved local tradition that showcases the best of Eastern Idaho's harvest and creativity. Operating every Saturday, rain or shine, this vibrant market offers a bounty of fresh produce, locally-raised meats, artisan baked goods, handcrafted items, and much more. Visitors can meet the friendly faces behind the stalls, taste the authentic flavors of the region, and support the vibrant community of local growers and artisans. The market also hosts winter indoor markets from January to April, ensuring year-round access to local products.</p>",
		"image": "/images/resources/image-soon.png",
		"address": {
			"street": "1515 E 17th St",
			"city": "Idaho Falls",
			"state": "Idaho",
			"zip": "83404"
		},
		"phone": "+1 208-612-8230",
		"hours": {
			"monday": "",
			"tuesday": "",
			"wednesday": "",
			"thursday": "",
			"friday": "",
			"saturday": "9:00 AM - 1:00 PM",
			"sunday": ""
		},
		"externalUrl": "https://www.idahofallsfarmersmarket.org/",
		"sponsored": false
	},
	{
		"id": "94",
		"title": "Kootenai County Farmers Market - Hayden",
		"description": "Northern Idaho's premier farmers market serving the community since 1986 with fresh, local, and sustainable products.",
		"longDescription": "<p>Kootenai County Farmers Market has been serving northern Idaho since 1986, providing communities with fresh, locally-grown produce, sustainable meats, artisan cheeses, and handcrafted breads. The Saturday market in Hayden operates from May through October at the corner of Highway 95 and Prairie Avenue. This producer-only market specializes in vegetable, flower, and native plants along with an ever-changing array of local food products including meats, cheeses, bread, honey, and jams. The market also features the Power of Produce Club (PoP Club), a free program for children ages 5-12 designed to introduce them to healthy fruits and vegetables.</p>",
		"image": "/images/resources/image-soon.png",
		"address": {
			"street": "SE Corner Hwy 95 & Prairie Ave",
			"city": "Hayden",
			"state": "Idaho",
			"zip": "83835"
		},
		"phone": "+1 208-772-7912",
		"hours": {
			"monday": "",
			"tuesday": "",
			"wednesday": "",
			"thursday": "",
			"friday": "",
			"saturday": "9:00 AM - 1:30 PM",
			"sunday": ""
		},
		"externalUrl": "https://kootenaifarmersmarkets.org/",
		"sponsored": false
	},
	{
		"id": "95",
		"title": "Kootenai County Farmers Market - Coeur d'Alene",
		"description": "Wednesday evening farmers market in the heart of Coeur d'Alene at the Village at Riverstone.",
		"longDescription": "<p>The Wednesday Kootenai County Farmers Market brings fresh, local produce and artisan goods to the heart of Coeur d'Alene at the Village at Riverstone. Operating from May through September, this evening market from 4:00 PM to 7:00 PM offers a perfect opportunity for after-work shopping. The market features the same high-quality, locally-sourced products as its Saturday counterpart, including fresh vegetables, fruits, flowers, native plants, meats, cheeses, bread, honey, and handcrafted items. The scenic Riverstone location provides a beautiful backdrop for community gathering and supporting local agriculture.</p>",
		"image": "/images/resources/image-soon.png",
		"address": {
			"street": "2151 N Main St",
			"city": "Coeur d'Alene",
			"state": "Idaho",
			"zip": "83814"
		},
		"phone": "+1 208-772-7912",
		"hours": {
			"monday": "",
			"tuesday": "",
			"wednesday": "4:00 PM - 7:00 PM",
			"thursday": "",
			"friday": "",
			"saturday": "",
			"sunday": ""
		},
		"externalUrl": "https://kootenaifarmersmarkets.org/",
		"sponsored": false
	},
	{
		"id": "96",
		"title": "Eagle Saturday Market",
		"description": "Handmade market in downtown Eagle featuring local arts, crafts, produce, and specialty foods since 2002.",
		"longDescription": "<p>Established in 2002, the Eagle Saturday Market is a beloved handmade market located in the heart of downtown Eagle at Eagle City Hall. Operating every Saturday from May through September (9:00 AM to 1:00 PM), this market showcases an impressive array of arts and crafts alongside local produce, herbs, flowers, woodwork, specialty food items, and freshly prepared foods. The market emphasizes handcrafted and locally-made products, creating a unique shopping experience that supports local artisans and farmers. Located at Eagle City Hall, the market provides convenient parking and easy access for visitors exploring downtown Eagle.</p>",
		"image": "/images/resources/image-soon.png",
		"address": {
			"street": "660 E Civic Ln",
			"city": "Eagle",
			"state": "Idaho",
			"zip": "83616"
		},
		"phone": "+1 208-939-6813",
		"hours": {
			"monday": "",
			"tuesday": "",
			"wednesday": "",
			"thursday": "",
			"friday": "",
			"saturday": "9:00 AM - 1:00 PM",
			"sunday": ""
		},
		"externalUrl": "https://www.cityofeagle.org/170/Eagle-Saturday-Market",
		"sponsored": false
	},
	{
		"id": "97",
		"title": "Payette Farmers Market",
		"description": "Seasonal farmers market in Southwest Idaho offering local produce, baked goods, crafts, and artisan products.",
		"longDescription": "<p>The Payette Farmers Market serves the Southwest Idaho community with a diverse selection of local and handmade products. Operating from July through September, this seasonal market offers fresh fruits and vegetables, baked goods, canned and preserved items, crafts and woodworking pieces, fresh and dried herbs, and locally-produced wine, spirits, and beer. The market provides an authentic small-town farmers market experience with plenty of on-site parking and a welcoming atmosphere. Rain or shine, the market continues to operate, demonstrating the dedication of local vendors and the community's commitment to supporting local agriculture and craftsmanship.</p>",
		"image": "/images/resources/image-soon.png",
		"address": {
			"street": "1130 3rd Ave N",
			"city": "Payette",
			"state": "Idaho",
			"zip": "83661"
		},
		"phone": "+1 208-642-2362",
		"hours": {
			"monday": "",
			"tuesday": "",
			"wednesday": "",
			"thursday": "",
			"friday": "",
			"saturday": "See website for seasonal hours",
			"sunday": ""
		},
		"externalUrl": "https://payettechamber.com/farmers-market/",
		"sponsored": false
	},
	{
		"id": "98",
		"title": "Logan Square Farmers Market",
		"description": "Award-winning Chicago farmers market voted Best in Illinois by USA Today and Best Farmers Market by Chicago Reader.",
		"longDescription": "<p>Since 2005, the Logan Square Farmers Market has been an open-air food market and weekly community gathering powered by the Logan Square Chamber of Commerce. This exceptional market has earned prestigious recognition, being honored as the Best Farmers Market in Illinois by USA Today in 2017 and voted 'Best Farmers' Market' in Chicago Reader's 'Best of Chicago 2019.' Operating every Sunday from May through October, the market features over 50 vendors offering fresh, local produce, artisanal foods, and handcrafted goods. Located on N. Kedzie Boulevard between Logan Boulevard and Fullerton Avenue, this vibrant market embodies the spirit of community and supports local agriculture and small businesses.</p>",
		"image": "/images/resources/image-soon.png",
		"address": {
			"street": "N Kedzie Blvd between Logan Blvd & Fullerton Ave",
			"city": "Chicago",
			"state": "Illinois",
			"zip": "60618"
		},
		"phone": "+1 773-489-3222",
		"hours": {
			"monday": "",
			"tuesday": "",
			"wednesday": "",
			"thursday": "",
			"friday": "",
			"saturday": "",
			"sunday": "8:30 AM - 3:00 PM"
		},
		"externalUrl": "https://www.logansquarefarmersmarket.org/",
		"sponsored": false
	},
	{
		"id": "99",
		"title": "Green City Market - Lincoln Park",
		"description": "Chicago's premier sustainable farmers market operating since 1999 with two locations in Lincoln Park and West Loop.",
		"longDescription": "<p>Green City Market is Chicago's sustainable farmers market, nourishing the city since 1999. The Lincoln Park location operates year-round with outdoor markets every Saturday from 7:00 AM to 1:00 PM and Wednesdays from May through October at 1817 N Clark Street. This market is dedicated to making good food accessible to all, welcoming and triple matching SNAP benefits through their partnership with Link Up Illinois Program. Green City Market features the finest local farmers, sustainable producers, and artisan food makers, creating a vibrant marketplace that supports regenerative agriculture and builds community connections around fresh, local food.</p>",
		"image": "/images/resources/image-soon.png",
		"address": {
			"street": "1817 N Clark St",
			"city": "Chicago",
			"state": "Illinois",
			"zip": "60614"
		},
		"phone": "+1 773-880-1266",
		"hours": {
			"monday": "",
			"tuesday": "",
			"wednesday": "7:00 AM - 1:00 PM",
			"thursday": "",
			"friday": "",
			"saturday": "7:00 AM - 1:00 PM",
			"sunday": ""
		},
		"externalUrl": "https://www.greencitymarket.org/",
		"sponsored": false
	},
	{
		"id": "100",
		"title": "Green City Market - West Loop",
		"description": "West Loop location of Chicago's sustainable farmers market featuring local farmers and artisan food makers.",
		"longDescription": "<p>Green City Market's West Loop location brings sustainable, local food to downtown Chicago every Saturday from 8:00 AM to 1:00 PM. Located at 900 W. Monroe Street, just north of Mary Bartelme Park, this market operates from May through November, providing convenient access to fresh, locally-sourced produce and artisan goods for downtown residents and workers. The market features the same commitment to sustainability and community as its Lincoln Park counterpart, supporting local farmers and food producers while making healthy, fresh food accessible to all through programs like SNAP benefit matching.</p>",
		"image": "/images/resources/image-soon.png",
		"address": {
			"street": "900 W Monroe St",
			"city": "Chicago",
			"state": "Illinois",
			"zip": "60607"
		},
		"phone": "+1 773-880-1266",
		"hours": {
			"monday": "",
			"tuesday": "",
			"wednesday": "",
			"thursday": "",
			"friday": "",
			"saturday": "8:00 AM - 1:00 PM",
			"sunday": ""
		},
		"externalUrl": "https://www.greencitymarket.org/",
		"sponsored": false
	},
	{
		"id": "101",
		"title": "Evanston Farmers Market",
		"description": "Celebrating 50 years in 2025, this historic farmers market serves the North Shore with fresh local produce and community spirit.",
		"longDescription": "<p>The Evanston Farmers Market celebrates its 50th anniversary in 2025, making it one of Illinois' most established and beloved farmers markets. Operating every Saturday from May 3 through November 1, the market runs from 7:30 AM to 1:00 PM with early access at 7:00 AM for seniors and adults with disabilities. Located at University Avenue and Oak Street behind the Hilton Garden Inn, this market features up to 58 Midwest vendors selling fresh fruits, vegetables, meat, dairy, baked goods, and artisan crafts. Free parking is available in the Maple Avenue garage with ticket validation, and accessible parking is provided on E Railroad Avenue.</p>",
		"image": "/images/resources/image-soon.png",
		"address": {
			"street": "University Ave at Oak St",
			"city": "Evanston",
			"state": "Illinois",
			"zip": "60201"
		},
		"phone": "+1 847-448-8045",
		"hours": {
			"monday": "",
			"tuesday": "",
			"wednesday": "",
			"thursday": "",
			"friday": "",
			"saturday": "7:30 AM - 1:00 PM",
			"sunday": ""
		},
		"externalUrl": "https://www.cityofevanston.org/residents/farmers-market",
		"sponsored": false
	},
	{
		"id": "102",
		"title": "Farmers Market+ at The Dole",
		"description": "Award-winning Crystal Lake farmers market voted Best of the Fox Farmers Market 3 years in a row and most popular in Illinois.",
		"longDescription": "<p>Farmers Market+ at The Dole in Crystal Lake has earned exceptional recognition, being voted 'Best of the Fox Farmers Market' for three consecutive years and named the most popular farmers market in Illinois by the American Farmland Trust and Farmers Market Coalition. Operating every Sunday from May 25 through October 26 (10:00 AM to 2:00 PM), this market is located on the front lawn of the historic Dole Mansion at 401 Country Club Road. The market features over 50 farmers, food purveyors, artisans, and food trucks, creating a vibrant community gathering that goes beyond a traditional farmers market with live acoustic music, local artists, and special events.</p>",
		"image": "/images/resources/image-soon.png",
		"address": {
			"street": "401 Country Club Rd",
			"city": "Crystal Lake",
			"state": "Illinois",
			"zip": "60014"
		},
		"phone": "+1 815-455-8000",
		"hours": {
			"monday": "",
			"tuesday": "",
			"wednesday": "",
			"thursday": "",
			"friday": "",
			"saturday": "",
			"sunday": "10:00 AM - 2:00 PM"
		},
		"externalUrl": "https://www.farmersmarketatthedole.org/",
		"sponsored": false
	},
	{
		"id": "103",
		"title": "Old Capitol Farmers Market",
		"description": "Springfield's longest-running farmers market operating twice weekly in the heart of downtown near the historic Old State Capitol.",
		"longDescription": "<p>The Old Capitol Farmers Market, presented by HSHS St. John's, is Springfield's longest-running and most popular farmers market, operating in downtown Springfield near the historic Old State Capitol. The market runs twice weekly - Wednesdays and Saturdays from 8:00 AM to 12:00 PM - providing consistent access to fresh, local produce and artisan goods. Located at 4th and Adams Streets, this market has been a cornerstone of the Springfield community, connecting local farmers and producers with residents and visitors. The market features seasonal produce, baked goods, crafts, and specialty items, making it a vibrant hub of community activity in the heart of Illinois' capital city.</p>",
		"image": "/images/resources/image-soon.png",
		"address": {
			"street": "4th & Adams St",
			"city": "Springfield",
			"state": "Illinois",
			"zip": "62701"
		},
		"phone": "+1 217-544-1723",
		"hours": {
			"monday": "",
			"tuesday": "",
			"wednesday": "8:00 AM - 12:00 PM",
			"thursday": "",
			"friday": "",
			"saturday": "8:00 AM - 12:00 PM",
			"sunday": ""
		},
		"externalUrl": "https://www.facebook.com/OldCapitolFarmersMarket",
		"sponsored": false
	},
	{
		"id": "104",
		"title": "Champaign Farmers Market",
		"description": "Tuesday evening farmers market in the heart of Champaign featuring local produce, artisan goods, and community atmosphere.",
		"longDescription": "<p>The Champaign Farmers Market brings fresh, local produce and artisan goods to the heart of Champaign every Tuesday from 3:00 PM to 6:00 PM. This evening market provides a perfect opportunity for after-work shopping and community gathering, featuring local farmers, bakers, and artisans from the Champaign-Urbana area. The market operates seasonally and focuses on connecting the university community and local residents with fresh, locally-grown produce and handcrafted goods. The convenient evening hours make it accessible for working families and students, creating a vibrant community atmosphere in downtown Champaign.</p>",
		"image": "/images/resources/image-soon.png",
		"address": {
			"street": "Neil St & Church St",
			"city": "Champaign",
			"state": "Illinois",
			"zip": "61820"
		},
		"phone": "+1 217-403-8800",
		"hours": {
			"monday": "",
			"tuesday": "3:00 PM - 6:00 PM",
			"wednesday": "",
			"thursday": "",
			"friday": "",
			"saturday": "",
			"sunday": ""
		},
		"externalUrl": "https://champaignparks.com/facilities/farmers-market/",
		"sponsored": false
	},
	{
		"id": "105",
		"title": "Peoria RiverFront Market",
		"description": "Saturday morning farmers market along the Illinois River featuring local produce, artisan goods, and scenic riverfront location.",
		"longDescription": "<p>The Peoria RiverFront Market operates every Saturday from 8:00 AM to 12:00 PM along the scenic Illinois River, providing a beautiful backdrop for shopping fresh, local produce and artisan goods. This market brings together local farmers, bakers, and craftspeople from central Illinois, creating a vibrant community gathering place in downtown Peoria. The riverfront location offers stunning views and a unique shopping experience, with vendors offering seasonal produce, baked goods, handcrafted items, and specialty foods. The market serves as both a source of fresh, local products and a community hub that celebrates Peoria's agricultural heritage and riverfront beauty.</p>",
		"image": "/images/resources/image-soon.png",
		"address": {
			"street": "100 Water St",
			"city": "Peoria",
			"state": "Illinois",
			"zip": "61602"
		},
		"phone": "+1 309-494-8900",
		"hours": {
			"monday": "",
			"tuesday": "",
			"wednesday": "",
			"thursday": "",
			"friday": "",
			"saturday": "8:00 AM - 12:00 PM",
			"sunday": ""
		},
		"externalUrl": "https://www.peoriariverfrontmarket.com/",
		"sponsored": false
	},
	{
		"id": "106",
		"title": "Broad Ripple Farmers Market",
		"description": "Indiana's largest farmers market operating year-round since 1994 with 80+ vendors outdoors and 60+ vendors indoors.",
		"longDescription": "<p>Supporting farmers since 1994, the Broad Ripple Farmers Market is the largest in Indiana and operates year-round with exceptional community support. The market features 80+ local vendors operating outdoors from May to October, and 60+ vendors indoors from November to April. Located in the vibrant Broad Ripple Cultural District, visitors can shop for the freshest, tastiest food of the season including farm-fresh fruits and vegetables, eggs, meat, fish, cheese, groceries, flowers, and plants. The market always features live music, breakfast foods and drinks, and a comfortable seating area. As a non-profit organization, the market participates in the SNAP program and serves as a vital community gathering place.</p>",
		"image": "/images/resources/image-soon.png",
		"address": {
			"street": "6001 N Rural St",
			"city": "Indianapolis",
			"state": "Indiana",
			"zip": "46220"
		},
		"phone": "+1 317-251-2740",
		"hours": {
			"monday": "",
			"tuesday": "",
			"wednesday": "",
			"thursday": "",
			"friday": "",
			"saturday": "8:00 AM - 12:00 PM",
			"sunday": ""
		},
		"externalUrl": "https://www.broadrippleindy.org/farmers-market/",
		"sponsored": false
	},
	{
		"id": "107",
		"title": "Carmel Farmers Market",
		"description": "Indiana's #1 farmers market celebrating 27 years with over 80 vendors offering the finest grown and produced products from Indiana.",
		"longDescription": "<p>Welcome to the Carmel Farmers Market, proudly celebrating its 27th year as Indiana's #1 farmers market. Located at Carter Green, this exceptional market features over 80 of Indiana's best vendors offering the freshest and finest grown and produced products from across the state. Operating every Saturday from May through September (8:00 AM to 11:30 AM), the market prioritizes food safety with every vendor carefully researched and evaluated before joining. Presented by IU Health North Hospital, the market is more than just shopping—it's a family and community gathering event featuring weekly musical talent, breakfast options, and a welcoming atmosphere where visitors can 'Get Fresh on Saturday!'</p>",
		"image": "/images/resources/image-soon.png",
		"address": {
			"street": "1 Civic Sq",
			"city": "Carmel",
			"state": "Indiana",
			"zip": "46032"
		},
		"phone": "+1 317-571-2441",
		"hours": {
			"monday": "",
			"tuesday": "",
			"wednesday": "",
			"thursday": "",
			"friday": "",
			"saturday": "8:00 AM - 11:30 AM",
			"sunday": ""
		},
		"externalUrl": "https://www.carmelfarmersmarket.com/",
		"sponsored": false
	},
	{
		"id": "108",
		"title": "Fishers Farmers Market",
		"description": "Ranked 6th in Indiana by American Farmland Trust, this dog-friendly market features 80+ vendors and free weekly activities.",
		"longDescription": "<p>The Fishers Farmers Market, presented by IU Health Fishers, is ranked 6th in the state by the American Farmland Trust: Farmers Market Coalition and has become a growing success year after year. Operating every Saturday from 8:00 AM to noon (May through September) at the Nickel Plate District Amphitheater in downtown Fishers, this market features more than 80 juried vendors specializing in food and plants. As one of the only dog-friendly markets in the North Indianapolis area, it caters to all visitors young, old, and furry. Each morning kicks off with free yoga or fitness, features live music from local musicians, and includes hands-on interactive activities for children. The market hosts specialty themed days throughout the season including Health & Wellness Expo, Nonprofit Day, and Biz Kids Day.</p>",
		"image": "/images/resources/image-soon.png",
		"address": {
			"street": "6 Municipal Dr",
			"city": "Fishers",
			"state": "Indiana",
			"zip": "46038"
		},
		"phone": "+1 317-595-3155",
		"hours": {
			"monday": "",
			"tuesday": "",
			"wednesday": "",
			"thursday": "",
			"friday": "",
			"saturday": "8:00 AM - 12:00 PM",
			"sunday": ""
		},
		"externalUrl": "https://fishersparks.com/activities-events/fishers-farmers-market/",
		"sponsored": false
	},
	{
		"id": "109",
		"title": "Zionsville Farmers Market",
		"description": "Historic main street farmers market established in 1997, celebrating over 25 years of bringing fresh local produce to the community.",
		"longDescription": "<p>The Zionsville Farmers Market was established in 1997 by volunteers who saw an opportunity to bring fresh, local produce to the Zionsville community. Since then, it has grown into a staple of Zionsville summers, operating every Saturday from 8:00 AM to 11:30 AM (May 17 through September 27). Located at the corner of Main Street and Pine on historic main street, this market provides more than just groceries—it's a community gathering spot where people come together, share stories, and enjoy local music while shopping for fresh and healthy food. The market features a diverse group of vendors offering produce, baked goods, and freshly prepared food, and operates rain or shine with live entertainment throughout the season.</p>",
		"image": "/images/resources/image-soon.png",
		"address": {
			"street": "Corner of Main St & Pine St",
			"city": "Zionsville",
			"state": "Indiana",
			"zip": "46077"
		},
		"phone": "+1 317-445-4417",
		"hours": {
			"monday": "",
			"tuesday": "",
			"wednesday": "",
			"thursday": "",
			"friday": "",
			"saturday": "8:00 AM - 11:30 AM",
			"sunday": ""
		},
		"externalUrl": "https://www.zionsvillefarmersmarket.org/",
		"sponsored": false
	},
	{
		"id": "110",
		"title": "Original Farmers Market at Indianapolis City Market",
		"description": "One of central Indiana's longest-running farmers markets, operating downtown on Monument Circle since the historic City Market era.",
		"longDescription": "<p>The Original Farmers Market at Indianapolis City Market is one of central Indiana's longest-running farmers markets, perfectly situated in the heart of the Midwest where Indianapolis farmers offer outstanding produce, dairy products, meats, and more. Operating every Wednesday from 10:00 AM to 1:30 PM (May 7 through September 24) on Monument Circle in downtown Indianapolis, this market brings fresh, in-season foods selected at their peak directly to downtown employees and residents. The market features fruits and vegetables, meats and cheeses, baked goods, and unique spices and herbs from local growers dedicated to providing the freshest foods available. The market participates in SNAP with dollar-for-dollar matching through the Fresh Bucks program.</p>",
		"image": "/images/resources/image-soon.png",
		"address": {
			"street": "Monument Circle",
			"city": "Indianapolis",
			"state": "Indiana",
			"zip": "46204"
		},
		"phone": "+1 317-634-9266",
		"hours": {
			"monday": "",
			"tuesday": "",
			"wednesday": "10:00 AM - 1:30 PM",
			"thursday": "",
			"friday": "",
			"saturday": "",
			"sunday": ""
		},
		"externalUrl": "https://www.indycm.com/original-farmers-market/",
		"sponsored": false
	},
	{
		"id": "111",
		"title": "Chesterton's European Market",
		"description": "Northwest Indiana's premier artisan market featuring vendors from Indiana, Michigan, and Illinois in historic downtown Chesterton.",
		"longDescription": "<p>Chesterton's European Market is a vibrant artisan market that brings together quality vendors, live entertainment, and a welcoming community atmosphere every Saturday from May through October (8:00 AM to 2:00 PM). Located at Broadway and Third Street in historic downtown Chesterton, just two miles south of the Indiana Dunes at Lake Michigan, this market features talented artists, chefs, merchants, and farmers from Indiana, Michigan, and Illinois. Visitors can discover artisan breads and pastries, boutique creamery cheeses, gourmet foods, locally crafted art, fresh meats and spices, clothing and accessories, handcrafted jewelry, and farm-fresh produce and flowers. The market includes live performances from Duneland's finest musicians and promotes healthy, sustainable lifestyles within the community.</p>",
		"image": "/images/resources/image-soon.png",
		"address": {
			"street": "Broadway & 3rd St",
			"city": "Chesterton",
			"state": "Indiana",
			"zip": "46304"
		},
		"phone": "+1 219-926-5513",
		"hours": {
			"monday": "",
			"tuesday": "",
			"wednesday": "",
			"thursday": "",
			"friday": "",
			"saturday": "8:00 AM - 2:00 PM",
			"sunday": ""
		},
		"externalUrl": "https://www.dunelandchamber.org/about-the-european-market/",
		"sponsored": false
	},
	{
		"id": "112",
		"title": "Garfield Park Farmers Market",
		"description": "Indianapolis neighborhood farmers market featuring around three dozen vendors with organic honey, meats, and artisan breads.",
		"longDescription": "<p>The Garfield Park Farmers Market serves the Indianapolis community with a focused selection of high-quality vendors, typically featuring around three dozen carefully curated vendors. This neighborhood market specializes in organic honey, organic meats, artisan breads, and fresh local produce, creating an intimate shopping experience that emphasizes quality over quantity. Located in the historic Garfield Park area, this market provides a community-focused atmosphere where shoppers can develop personal relationships with local farmers and artisans. The market operates seasonally and has become a beloved destination for Indianapolis residents seeking authentic, locally-sourced products in a welcoming neighborhood setting.</p>",
		"image": "/images/resources/image-soon.png",
		"address": {
			"street": "2345 Pagoda Dr",
			"city": "Indianapolis",
			"state": "Indiana",
			"zip": "46203"
		},
		"phone": "+1 317-327-7431",
		"hours": {
			"monday": "",
			"tuesday": "",
			"wednesday": "",
			"thursday": "",
			"friday": "",
			"saturday": "8:00 AM - 12:00 PM",
			"sunday": ""
		},
		"externalUrl": "https://www.indy.gov/activity/garfield-park-farmers-market",
		"sponsored": false
	},
	{
		"id": "113",
		"title": "Pike Farmers Market",
		"description": "Indianapolis community farmers market serving the Pike Township area with fresh local produce and artisan goods.",
		"longDescription": "<p>The Pike Farmers Market serves the Pike Township area of Indianapolis, providing the community with access to fresh, locally-grown produce and artisan goods. This market operates seasonally and focuses on connecting local farmers and food producers with residents of northwest Indianapolis. The market features a variety of vendors offering seasonal fruits and vegetables, baked goods, honey, and handcrafted items, creating a vibrant community gathering place. Operating with a commitment to supporting local agriculture and small businesses, the Pike Farmers Market has become an important part of the Pike Township community, offering residents convenient access to fresh, healthy food options while supporting the local economy.</p>",
		"image": "/images/resources/image-soon.png",
		"address": {
			"street": "6701 Zionsville Rd",
			"city": "Indianapolis",
			"state": "Indiana",
			"zip": "46268"
		},
		"phone": "+1 317-327-7431",
		"hours": {
			"monday": "",
			"tuesday": "",
			"wednesday": "",
			"thursday": "",
			"friday": "",
			"saturday": "See website for seasonal hours",
			"sunday": ""
		},
		"externalUrl": "https://www.indy.gov/activity/pike-farmers-market",
		"sponsored": false
	},
	{
		"id": "114",
		"title": "Downtown Des Moines Farmers Market",
		"description": "Celebrating 50 years, one of the best farmers markets in Iowa and the U.S. with 300 vendors spanning nine city blocks.",
		"longDescription": "<p>The Downtown Des Moines Farmers Market, presented by UnityPoint Health, is celebrating its 50th season in 2025! For five decades, this exceptional market has supported farmers, growers, and artisan food entrepreneurs from all around the state of Iowa, creating a vibrant gathering place in the heart of the city. Touted as one of the best farmers markets in Iowa and the U.S., the market brings together 300 diverse vendors and 25,000 visitors every Saturday morning between May and October. The vendors represent 50 counties across the state, and the market spans nine city blocks in Downtown Des Moines' Historic Court District, offering an incredible variety of fresh food, home-baked goods, live music, local vendors, arts and crafts, and more.</p>",
		"image": "/images/resources/image-soon.png",
		"address": {
			"street": "Historic Court District",
			"city": "Des Moines",
			"state": "Iowa",
			"zip": "50309"
		},
		"phone": "+1 515-286-4950",
		"hours": {
			"monday": "",
			"tuesday": "",
			"wednesday": "",
			"thursday": "",
			"friday": "",
			"saturday": "7:00 AM - 12:00 PM",
			"sunday": ""
		},
		"externalUrl": "https://www.dsmpartnership.com/desmoinesfarmersmarket/",
		"sponsored": false
	},
	{
		"id": "115",
		"title": "Iowa City Farmers Market",
		"description": "Open-air market featuring local handcrafted, homemade, and homegrown products with Wednesday nights and Saturday mornings.",
		"longDescription": "<p>The Iowa City Farmers Market is managed by the Iowa City Parks and Recreation Department and operates as an open-air market held in the Chauncey Swan parking ramp, Chauncey Swan Park, and on E. Washington St. in downtown Iowa City. Running from May through October, the market strives to serve all populations by providing access to fresh, locally produced products. Operating on both Wednesday nights and Saturday mornings (7:30 AM to noon), visitors can load up on local handcrafted, homemade, and homegrown products and produce. The market features vendors serving everything from sweet treats to spicy Mexican dishes, and accepts various payment options including cash, credit/debit cards, EBT/SNAP cards, and DUFB (Double Up Food Bucks) tokens available at the Information Table.</p>",
		"image": "/images/resources/image-soon.png",
		"address": {
			"street": "415 E Washington St",
			"city": "Iowa City",
			"state": "Iowa",
			"zip": "52240"
		},
		"phone": "+1 319-356-5213",
		"hours": {
			"monday": "",
			"tuesday": "",
			"wednesday": "5:00 PM - 7:30 PM",
			"thursday": "",
			"friday": "",
			"saturday": "7:30 AM - 12:00 PM",
			"sunday": ""
		},
		"externalUrl": "https://www.icgov.org/government/departments-and-divisions/parks-and-recreation/farmers-market",
		"sponsored": false
	},
	{
		"id": "116",
		"title": "Cedar Rapids Downtown Farmers Market",
		"description": "Award-winning market celebrating 20 years, rated 'Best in Class' by American Farmland Trust with 200 vendors and 12,000 weekly attendance.",
		"longDescription": "<p>The Cedar Rapids Downtown Farmers Market is celebrating its 20th annual market season in 2025, featuring entertainment, food, and 200 amazing market vendors. Recognized as one of the largest and most popular open-air markets in the Midwest, this award-winning market has been rated 'Best in Class' Farmers Market by American Farmland Trust. Operating on select Saturday mornings in downtown Cedar Rapids, the market attracts an average of 12,000 visitors each week and features 200 local Iowa vendors offering fresh produce, flowers, meats, artisan gifts, live cooking demonstrations, musical performances, and a wide array of children's activities. The market operates twice monthly during the summer season, making it THE premier summer event in downtown Cedar Rapids.</p>",
		"image": "/images/resources/image-soon.png",
		"address": {
			"street": "501 1st St SE",
			"city": "Cedar Rapids",
			"state": "Iowa",
			"zip": "52401"
		},
		"phone": "+1 319-398-5009",
		"hours": {
			"monday": "",
			"tuesday": "",
			"wednesday": "",
			"thursday": "",
			"friday": "",
			"saturday": "8:00 AM - 1:00 PM",
			"sunday": ""
		},
		"externalUrl": "https://www.cedarrapids.org/economic-alliance-events/downtown-farmers-market/",
		"sponsored": false
	},
	{
		"id": "117",
		"title": "Dubuque Farmers Market",
		"description": "Iowa's longest-running farmers market dating back to 1858, celebrating all things local for over 165 years.",
		"longDescription": "<p>Experience Iowa's longest-running farmers market, which dates back to 1858 and has celebrated all things local for over 165 years. The Dubuque Farmers Market operates every Saturday morning from May through September, bringing together the community in historic Dubuque for fresh produce and local crafts. Visitors can find unique offerings like lavender lemonade, breakfast donut sandwiches, and locally made maple syrup, alongside traditional farmers market fare. This historic market has been a cornerstone of the Dubuque community for more than a century and a half, maintaining its commitment to supporting local farmers and artisans while providing residents and visitors with access to the finest local products the region has to offer.</p>",
		"image": "/images/resources/image-soon.png",
		"address": {
			"street": "13th & Iowa St",
			"city": "Dubuque",
			"state": "Iowa",
			"zip": "52001"
		},
		"phone": "+1 563-589-4263",
		"hours": {
			"monday": "",
			"tuesday": "",
			"wednesday": "",
			"thursday": "",
			"friday": "",
			"saturday": "7:00 AM - 12:00 PM",
			"sunday": ""
		},
		"externalUrl": "https://www.cityofdubuque.org/1302/Farmers-Market",
		"sponsored": false
	},
	{
		"id": "118",
		"title": "Sioux City Farmers Market",
		"description": "Producer-only market connecting visitors with local rural family farms, featuring products grown by the person selling them.",
		"longDescription": "<p>Connect with local, rural family farms at Sioux City's farmers market, held in the parking lot of the Tyson Events Center every Wednesday and Saturday from May through October. This true producer-only market ensures that all locally grown produce and handcrafted art are produced or grown by the person selling them, creating authentic connections between farmers and consumers. Visitors can purchase fresh, locally grown produce, handcrafted art, and enjoy an abundance of baked goods, all while supporting rural family farms in the Sioux City area. This community event celebrates its farmers and patrons, providing a genuine farm-to-market experience that highlights the agricultural heritage of western Iowa and the surrounding region.</p>",
		"image": "/images/resources/image-soon.png",
		"address": {
			"street": "888 Line Dr",
			"city": "Sioux City",
			"state": "Iowa",
			"zip": "51104"
		},
		"phone": "+1 712-279-4850",
		"hours": {
			"monday": "",
			"tuesday": "",
			"wednesday": "4:00 PM - 7:00 PM",
			"thursday": "",
			"friday": "",
			"saturday": "8:00 AM - 12:00 PM",
			"sunday": ""
		},
		"externalUrl": "https://www.siouxcityfarmersmarket.com/",
		"sponsored": false
	},
	{
		"id": "119",
		"title": "Freight House Farmers Market",
		"description": "Scenic Mississippi Riverfront market in Davenport featuring goods grown in the Mississippi Valley with gorgeous Iowa views.",
		"longDescription": "<p>Featuring goods grown in the Mississippi Valley, the Freight House Farmers Market offers great produce along with some gorgeous Iowa views. Held each Wednesday, Saturday, and Sunday from May through October on the scenic Mississippi Riverfront in Davenport, visitors can find crafts, treats, and fresh produce including meat and eggs, as well as an abundance of tasty samples. The vendors switch out on the weekends so visitors can find something new each day they visit. This unique market combines the beauty of the Mississippi River setting with the bounty of the Mississippi Valley, creating a shopping experience that celebrates both the natural beauty of the region and the agricultural excellence of local farmers and artisans.</p>",
		"image": "/images/resources/image-soon.png",
		"address": {
			"street": "421 W River Dr",
			"city": "Davenport",
			"state": "Iowa",
			"zip": "52801"
		},
		"phone": "+1 563-322-4069",
		"hours": {
			"monday": "",
			"tuesday": "",
			"wednesday": "4:00 PM - 7:00 PM",
			"thursday": "",
			"friday": "",
			"saturday": "8:00 AM - 1:00 PM",
			"sunday": "10:00 AM - 2:00 PM"
		},
		"externalUrl": "https://www.freighthousefarmersmarket.com/",
		"sponsored": false
	},
	{
		"id": "120",
		"title": "Clear Lake Farmers Market",
		"description": "Northern Iowa's charming market at the historic Surf Ballroom with 25-45 local vendors and live music.",
		"longDescription": "<p>Though small, the Clear Lake Farmers Market has a big selection of some of northern Iowa's best produce. Held in the historic Surf Ballroom's parking lot, this charming market features anywhere from 25 to 45 local vendors each Saturday from May through October. Visitors can find fresh produce alongside perennials, homemade soaps and candles, Iowa-made maple syrup, art, textiles, and jewelry. The market also features kids' activities and live music, creating a family-friendly atmosphere in the heart of Clear Lake. The unique setting at the legendary Surf Ballroom adds historical significance to this community gathering, making it both a shopping destination and a cultural experience that celebrates northern Iowa's agricultural and musical heritage.</p>",
		"image": "/images/resources/image-soon.png",
		"address": {
			"street": "460 N Shore Dr",
			"city": "Clear Lake",
			"state": "Iowa",
			"zip": "50428"
		},
		"phone": "+1 641-357-2159",
		"hours": {
			"monday": "",
			"tuesday": "",
			"wednesday": "",
			"thursday": "",
			"friday": "",
			"saturday": "8:00 AM - 12:00 PM",
			"sunday": ""
		},
		"externalUrl": "https://www.clearlakeiowa.com/farmers-market",
		"sponsored": false
	},
	{
		"id": "121",
		"title": "Grinnell Farmers Market",
		"description": "100% producer market recognized as one of Iowa's largest small-community markets with Thursday evenings and Saturday mornings.",
		"longDescription": "<p>Recognized as a 100% producer market, guests will find the freshest produce at Grinnell's farmers market. As one of Iowa's largest small-community markets, Grinnell's vendors offer fresh produce, baked goods, honey, jams, plants, and flowers, all produced by the vendors themselves. Operating both Thursday evenings and Saturday mornings from May through October, this market provides multiple opportunities each week for the community to support central Iowa's vendors. The 100% producer designation ensures that everything sold at the market is grown, made, or produced by the vendor selling it, guaranteeing authenticity and freshness while supporting local agriculture and small businesses in the Grinnell area.</p>",
		"image": "/images/resources/image-soon.png",
		"address": {
			"street": "833 4th Ave",
			"city": "Grinnell",
			"state": "Iowa",
			"zip": "50112"
		},
		"phone": "+1 641-236-6555",
		"hours": {
			"monday": "",
			"tuesday": "",
			"wednesday": "",
			"thursday": "4:00 PM - 7:00 PM",
			"friday": "",
			"saturday": "8:00 AM - 11:00 AM",
			"sunday": ""
		},
		"externalUrl": "https://www.grinnelliowa.gov/farmers-market",
		"sponsored": false
	}
]
